~VERSION INFORMATION
VERS.           2.0   :CWLS Log ASCII Standard - VERSION 2.0
WRAP.           NO    :One Line per depth step
PROD.  Schlumberger   :LAS Producer
PROG.  DLIS to ASCII 17C0-154                          :LAS Program name and version
CREA.        2010/05/08 22:27                          :LAS Creation date {YYYY/MM/DD hh:mm}
DLIS_CREA.  2010-May-08 20:41                          :DLIS Creation date and time {YYYY-MMM-DD hh:mm}
SOURCE.     ConocoPhillips Kronos-1 Run 1 CMR-LDS-CNT-GR Main Pass _268PUC.DLIS  :DLIS File Name
FILE-ID.     CMR_LDL_CNL_268PUP                        :File Identification Number
#--------------------------------------------------
~WELL INFORMATION
#MNEM.UNIT      DATA             DESCRIPTION
#---- ------ --------------   -----------------------------
STRT .M      5334.7620       :START DEPTH     
STOP .M      4697.2728       :STOP DEPTH     
STEP .M        -0.1524       :STEP     
NULL .          -999.25      :NULL VALUE
COMP .        ConocoPhillips Australia Pty Ltd         :COMPANY
WELL .        Kronos-1                                 :WELL
FLD  .        Browse Basin                             :FIELD
LOC  .        Permit: WA398-P                          :LOCATION
CNTY .        Transocean Legend                        :COUNTY
STAT .        Western Australia                        :STATE
CTRY .        Australia                                :COUNTRY
API  .                                                 :API NUMBER
UWI  .                                                 :UNIQUE WELL ID
DATE .        02-May-2010                              :LOG DATE {DD-MMM-YYYY}
SRVC .        Schlumberger                             :SERVICE COMPANY
LATI .DEG     13* 41' 53.9802"                         :LATITUDE
LONG .DEG     122* 11' 30.2352"                        :LONGITUDE
GDAT .                                                 :GeoDetic Datum
#-----------------------------------------------------------------------------
~PARAMETER INFORMATION
#MNEM.UNIT    VALUE                      DESCRIPTION
#---- -----   --------------------       ------------------------
RUN  .          1                        :RUN NUMBER
PDAT .        MSL                        :Permanent Datum
EPD  .                                   :Elevation of Permanent Datum above Mean Sea Level
LMF  .          RT                       :Logging Measured From (Name of Logging Elevation Reference)
APD  .                                   :Elevation of Depth Reference (LMF) above Permanent Datum
#-----------------------------------------------------------------------------
~CURVE INFORMATION
#MNEM.UNIT   API CODE                                  DESCRIPTION
#---- -----  --------                                  -----------------------
DEPT .M                                                :DEPTH (BOREHOLE) {F10.4}
TENS .LBF                                              :CABLE TENSION {F13.4}
GR_EDTC.GAPI                                           :EDTC Gamma Ray {F13.4}
HBDC .G/C3                                             :LDS High Resolution Bulk Density Correction {F13.4}
HLEF .                                                 :LDS High Resolution Log Spaced Photoelectric Effect {F13.4}
HROM .G/C3                                             :LDS High Resolution Corrected Bulk Density {F13.4}
HTNP .V/V                                              :HiRes Thermal Neutron Porosity {F13.4}
LCAL .IN                                               :LDS Caliper {F13.4}
CBP1 .V/V                                              :CMR Bin Porosity 1 {F13.4}
CBP2 .V/V                                              :CMR Bin Porosity 2 {F13.4}
CBP3 .V/V                                              :CMR Bin Porosity 3 {F13.4}
CBP4 .V/V                                              :CMR Bin Porosity 4 {F13.4}
CBP5 .V/V                                              :CMR Bin Porosity 5 {F13.4}
CBP6 .V/V                                              :CMR Bin Porosity 6 {F13.4}
CBP7 .V/V                                              :CMR Bin Porosity 7 {F13.4}
CBP8 .V/V                                              :CMR Bin Porosity 8 {F13.4}
CMFF .V/V                                              :CMR Free Fluid {F13.4}
CMRP_3MS.V/V                                           :CMR 3ms Porosity {F13.4}
KSDR .MD                                               :Permeability from CMR - SDR Model {F13.4}
KTIM .MD                                               :Permeability from CMR - Timur Model {F13.4}
TCMR .V/V                                              :Total CMR Porosity {F13.4}
#-----------------------------------------------------------------------------
# 
#     DEPT        TENS       GR_EDTC        HBDC         HLEF         HROM         HTNP         LCAL         CBP1         CBP2         CBP3         CBP4         CBP5         CBP6         CBP7         CBP8         CMFF       CMRP_3MS       KSDR         KTIM         TCMR
#
~A  
# ...
 5252.4660    7848.0000     113.3875       0.0069       4.0393       2.6539       0.1449       5.8340       0.0214       0.0276       0.0080       0.0000       0.0000       0.0005       0.0027       0.0000       0.0033       0.0113       0.0002       0.0004       0.0603
 5252.3136    7754.0000     129.0616       0.0096       4.2707       2.6411       0.1633       5.8503       0.0268       0.0311       0.0057       0.0000       0.0000       0.0001       0.0017       0.0000       0.0018       0.0075       0.0001       0.0002       0.0655
 5252.1612    7815.0000     143.2504       0.0209       3.9947       2.6799       0.1896       5.8543       0.0368       0.0385       0.0063       0.0000       0.0000       0.0000       0.0006       0.0006       0.0012       0.0075       0.0003       0.0001       0.0828
 5252.0088    7994.0000     144.4094       0.0148       3.9405       2.6504       0.1971       5.8603       0.0434       0.0444       0.0091       0.0000       0.0000       0.0000       0.0000       0.0012       0.0012       0.0103       0.0006       0.0001       0.0981
 5251.8564    8039.0000     147.0314       0.0115       4.0819       2.6460       0.1988       5.8598       0.0544       0.0468       0.0100       0.0004       0.0000       0.0000       0.0000       0.0018       0.0019       0.0123       0.0012       0.0009       0.1134
 5251.7040    8023.0000     153.7804       0.0109       4.2034       2.6427       0.2007       5.8675       0.0932       0.0471       0.0014       0.0018       0.0000       0.0000       0.0000       0.0041       0.0041       0.0074       0.0023       0.0039       0.1477
 5251.5516    8185.0000     163.2092       0.0163       4.0082       2.6544       0.2195       5.8598       0.0896       0.0499       0.0003       0.0004       0.0000       0.0000       0.0000       0.0049       0.0050       0.0057       0.0023       0.0056       0.1451
 5251.3992    8113.0000     165.2024       0.0074       4.3265       2.6362       0.2401       5.8598       0.0856       0.0528       0.0000       0.0000       0.0000       0.0000       0.0000       0.0049       0.0049       0.0050       0.0023       0.0054       0.1434
 5251.2468    7971.0000     166.0629      -0.0059       4.0791       2.6183       0.2474       5.8732       0.0647       0.0493       0.0053       0.0000       0.0000       0.0000       0.0000       0.0033       0.0034       0.0086       0.0016       0.0030       0.1226
 5251.0944    7944.0000     166.1125      -0.0075       3.8927       2.6093       0.2372       5.8661       0.0389       0.0434       0.0134       0.0012       0.0000       0.0000       0.0000       0.0014       0.0014       0.0161       0.0009       0.0003       0.0983
 5250.9420    7853.0000     169.7352       0.0003       3.9135       2.6174       0.2324       5.8842       0.0490       0.0499       0.0142       0.0061       0.0000       0.0000       0.0000       0.0023       0.0023       0.0227       0.0023       0.0008       0.1215
 5250.7896    7752.0000     170.0657       0.0060       3.7754       2.6165       0.2356       5.9019       0.0507       0.0529       0.0121       0.0084       0.0007       0.0005       0.0001       0.0005       0.0018       0.0223       0.0024       0.0005       0.1259
 5250.6372    7731.0000     168.8250       0.0057       4.1449       2.6096       0.2513       5.8948       0.0458       0.0494       0.0132       0.0040       0.0007       0.0002       0.0001       0.0000       0.0010       0.0182       0.0015       0.0002       0.1135
 5250.4848    7595.0000     167.8325       0.0087       4.0834       2.6306       0.2642       5.8882       0.0425       0.0446       0.0131       0.0004       0.0004       0.0000       0.0004       0.0000       0.0007       0.0143       0.0007       0.0001       0.1014
 5250.3324    7704.0000     164.8550       0.0123       3.6923       2.6469       0.2630       5.8761       0.0449       0.0435       0.0104       0.0000       0.0000       0.0000       0.0007       0.0002       0.0009       0.0113       0.0006       0.0001       0.0997
 5250.1800    7778.0000     165.7979       0.0054       3.8157       2.6281       0.2617       5.8638       0.0535       0.0508       0.0061       0.0000       0.0000       0.0000       0.0000       0.0007       0.0008       0.0069       0.0008       0.0001       0.1112
 5250.0276    7805.0000     162.5723       0.0009       4.1694       2.6236       0.2611       5.8589       0.0673       0.0576       0.0028       0.0000       0.0000       0.0000       0.0000       0.0004       0.0004       0.0032       0.0011       0.0000       0.1281
 5249.8752    7864.0000     168.0807       0.0070       4.1086       2.6129       0.2652       5.8632       0.0666       0.0604       0.0052       0.0000       0.0000       0.0000       0.0000       0.0002       0.0002       0.0055       0.0014       0.0000       0.1325
 5249.7228    7963.0000     172.6958       0.0110       3.3822       2.5930       0.2670       5.8611       0.0596       0.0597       0.0106       0.0000       0.0000       0.0000       0.0000       0.0003       0.0003       0.0109       0.0015       0.0000       0.1301
 5249.5704    7876.0000     174.9866       0.0016       4.4665       2.6179       0.2615       5.8603       0.0524       0.0570       0.0162       0.0000       0.0000       0.0000       0.0000       0.0005       0.0005       0.0167       0.0017       0.0000       0.1260
 5249.4180    8035.0000     171.0164      -0.0046       3.8130       2.6185       0.2562       5.8661       0.0492       0.0551       0.0196       0.0000       0.0000       0.0000       0.0000       0.0008       0.0009       0.0205       0.0019       0.0001       0.1248
 5249.2656    8003.0000     166.8479       0.0081       4.7069       2.6698       0.2504       5.8625       0.0458       0.0533       0.0204       0.0000       0.0000       0.0000       0.0000       0.0011       0.0011       0.0214       0.0018       0.0002       0.1206
 5249.1132    7939.0000     167.7216       0.0229       3.4914       2.6851       0.2518       5.8661       0.0534       0.0556       0.0168       0.0000       0.0000       0.0000       0.0007       0.0008       0.0016       0.0184       0.0019       0.0004       0.1274
 5248.9608    7869.0000     170.0045       0.0161       3.8941       2.6427       0.2536       5.8632       0.0623       0.0586       0.0122       0.0000       0.0000       0.0000       0.0020       0.0004       0.0024       0.0146       0.0022       0.0012       0.1355
 5248.8084    7876.0000     173.6768       0.0097       3.7986       2.6432       0.2566       5.8638       0.0641       0.0596       0.0088       0.0000       0.0000       0.0000       0.0032       0.0000       0.0032       0.0120       0.0022       0.0020       0.1356
 5248.6560    7807.0000     175.9711       0.0097       3.5857       2.6537       0.2599       5.8611       0.0509       0.0569       0.0075       0.0000       0.0000       0.0000       0.0037       0.0000       0.0037       0.0113       0.0015       0.0021       0.1190
 5248.5036    7800.0000     173.0991       0.0123       3.2401       2.6625       0.2481       5.8570       0.0425       0.0511       0.0067       0.0000       0.0000       0.0003       0.0015       0.0009       0.0027       0.0094       0.0009       0.0009       0.1030
 5248.3512    7655.0000     169.8641       0.0067       3.8082       2.6188       0.2622       5.8692       0.0429       0.0504       0.0063       0.0000       0.0000       0.0002       0.0004       0.0014       0.0019       0.0082       0.0007       0.0004       0.1016
 5248.1988    7791.0000     143.3146       0.0061       3.6509       2.6285       0.2104       5.8598       0.0452       0.0483       0.0065       0.0000       0.0000       0.0000       0.0000       0.0015       0.0015       0.0080       0.0007       0.0002       0.1014
 5248.0464    7819.0000     119.0416       0.0069       4.3968       2.6664       0.1422       5.8543       0.0478       0.0431       0.0061       0.0000       0.0004       0.0000       0.0000       0.0014       0.0018       0.0079       0.0006       0.0004       0.0988
