~VERSION INFORMATION
VERS.           2.0   :CWLS Log ASCII Standard - VERSION 2.0
WRAP.           NO    :One Line per depth step
PROD.  Schlumberger   :LAS Producer
PROG.  DLIS to ASCII 17C0-154                          :LAS Program name and version
CREA.        2010/05/08 22:27                          :LAS Creation date {YYYY/MM/DD hh:mm}
DLIS_CREA.  2010-May-08 20:41                          :DLIS Creation date and time {YYYY-MMM-DD hh:mm}
SOURCE.     ConocoPhillips Kronos-1 Run 1 CMR-LDS-CNT-GR Main Pass _268PUC.DLIS  :DLIS File Name
FILE-ID.     CMR_LDL_CNL_268PUP                        :File Identification Number
#--------------------------------------------------
~WELL INFORMATION
#MNEM.UNIT      DATA             DESCRIPTION
#---- ------ --------------   -----------------------------
STRT .M      5334.7620       :START DEPTH     
STOP .M      4697.2728       :STOP DEPTH     
STEP .M        -0.1524       :STEP     
NULL .          -999.25      :NULL VALUE
COMP .        ConocoPhillips Australia Pty Ltd         :COMPANY
WELL .        Kronos-1                                 :WELL
FLD  .        Browse Basin                             :FIELD
LOC  .        Permit: WA398-P                          :LOCATION
CNTY .        Transocean Legend                        :COUNTY
STAT .        Western Australia                        :STATE
CTRY .        Australia                                :COUNTRY
API  .                                                 :API NUMBER
UWI  .                                                 :UNIQUE WELL ID
DATE .        02-May-2010                              :LOG DATE {DD-MMM-YYYY}
SRVC .        Schlumberger                             :SERVICE COMPANY
LATI .DEG     13* 41' 53.9802"                         :LATITUDE
LONG .DEG     122* 11' 30.2352"                        :LONGITUDE
GDAT .                                                 :GeoDetic Datum
#-----------------------------------------------------------------------------
~PARAMETER INFORMATION
#MNEM.UNIT    VALUE                      DESCRIPTION
#---- -----   --------------------       ------------------------
RUN  .          1                        :RUN NUMBER
PDAT .        MSL                        :Permanent Datum
EPD  .                                   :Elevation of Permanent Datum above Mean Sea Level
LMF  .          RT                       :Logging Measured From (Name of Logging Elevation Reference)
APD  .                                   :Elevation of Depth Reference (LMF) above Permanent Datum
#-----------------------------------------------------------------------------
~CURVE INFORMATION
#MNEM.UNIT   API CODE                                  DESCRIPTION
#---- -----  --------                                  -----------------------
DEPT .M                                                :DEPTH (BOREHOLE) {F10.4}
TENS .LBF                                              :CABLE TENSION {F13.4}
GR_EDTC.GAPI                                           :EDTC Gamma Ray {F13.4}
HBDC .G/C3                                             :LDS High Resolution Bulk Density Correction {F13.4}
HLEF .                                                 :LDS High Resolution Log Spaced Photoelectric Effect {F13.4}
HROM .G/C3                                             :LDS High Resolution Corrected Bulk Density {F13.4}
HTNP .V/V                                              :HiRes Thermal Neutron Porosity {F13.4}
LCAL .IN                                               :LDS Caliper {F13.4}
CBP1 .V/V                                              :CMR Bin Porosity 1 {F13.4}
CBP2 .V/V                                              :CMR Bin Porosity 2 {F13.4}
CBP3 .V/V                                              :CMR Bin Porosity 3 {F13.4}
CBP4 .V/V                                              :CMR Bin Porosity 4 {F13.4}
CBP5 .V/V                                              :CMR Bin Porosity 5 {F13.4}
CBP6 .V/V                                              :CMR Bin Porosity 6 {F13.4}
CBP7 .V/V                                              :CMR Bin Porosity 7 {F13.4}
CBP8 .V/V                                              :CMR Bin Porosity 8 {F13.4}
CMFF .V/V                                              :CMR Free Fluid {F13.4}
CMRP_3MS.V/V                                           :CMR 3ms Porosity {F13.4}
KSDR .MD                                               :Permeability from CMR - SDR Model {F13.4}
KTIM .MD                                               :Permeability from CMR - Timur Model {F13.4}
TCMR .V/V                                              :Total CMR Porosity {F13.4}
#-----------------------------------------------------------------------------
# 
#     DEPT        TENS       GR_EDTC        HBDC         HLEF         HROM         HTNP         LCAL         CBP1         CBP2         CBP3         CBP4         CBP5         CBP6         CBP7         CBP8         CMFF       CMRP_3MS       KSDR         KTIM         TCMR
#
~A  
# ...
 5293.6140    7894.0000      59.5832      -0.0008       5.2305       2.6705       0.0568       5.8593       0.0003       0.0108       0.0076       0.0005       0.0024       0.0000       0.0000       0.0009       0.0034       0.0115       0.0000       0.0001       0.0225
 5293.4616    7894.0000      55.4534       0.0000       5.1966       2.6900       0.0623       5.8828       0.0001       0.0037       0.0103       0.0048       0.0018       0.0001       0.0002       0.0004       0.0026       0.0177       0.0001       0.0000       0.0215
 5293.3092    7905.0000      54.3463      -0.0003       4.8551       2.7143       0.0623       5.9029       0.0000       0.0008       0.0110       0.0079       0.0007       0.0001       0.0001       0.0002       0.0011       0.0199       0.0001       0.0000       0.0208
 5293.1568    8029.0000      54.2060      -0.0043       4.6514       2.7001       0.0637       5.9031       0.0000       0.0002       0.0115       0.0092       0.0000       0.0000       0.0000       0.0001       0.0001       0.0208       0.0001       0.0000       0.0210
 5293.0044    7920.0000      59.9046      -0.0032       4.3747       2.7146       0.0654       5.9081       0.0000       0.0009       0.0119       0.0092       0.0006       0.0000       0.0000       0.0001       0.0006       0.0218       0.0001       0.0000       0.0227
 5292.8520    8059.0000      63.6518      -0.0044       3.8277       2.6815       0.0744       5.9262       0.0000       0.0030       0.0107       0.0094       0.0028       0.0000       0.0000       0.0003       0.0031       0.0232       0.0002       0.0001       0.0262
 5292.6996    8093.0000      69.3001       0.0015       4.1404       2.7047       0.0901       5.9248       0.0005       0.0095       0.0134       0.0033       0.0006       0.0009       0.0000       0.0006       0.0021       0.0188       0.0001       0.0000       0.0288
 5292.5472    8107.0000      75.1060      -0.0006       4.4835       2.6831       0.0981       5.9221       0.0015       0.0133       0.0120       0.0007       0.0000       0.0005       0.0000       0.0013       0.0018       0.0146       0.0001       0.0000       0.0294
 5292.3948    8160.0000      78.8108      -0.0033       4.4636       2.6661       0.0956       5.9286       0.0018       0.0144       0.0118       0.0001       0.0000       0.0000       0.0000       0.0019       0.0019       0.0138       0.0001       0.0000       0.0300
 5292.2424    8138.0000      79.8606       0.0017       4.1774       2.6788       0.0897       5.9235       0.0011       0.0131       0.0144       0.0002       0.0000       0.0000       0.0000       0.0022       0.0023       0.0169       0.0001       0.0001       0.0311
 5292.0900    8014.0000      75.2816       0.0068       4.3559       2.6933       0.0944       5.9196       0.0000       0.0102       0.0182       0.0004       0.0000       0.0000       0.0000       0.0028       0.0028       0.0214       0.0002       0.0001       0.0316
 5291.9376    7975.0000      74.9047       0.0092       4.6127       2.7046       0.1029       5.9286       0.0000       0.0093       0.0135       0.0001       0.0000       0.0000       0.0000       0.0026       0.0027       0.0162       0.0001       0.0001       0.0255
 5291.7852    7766.0000      75.7535       0.0093       4.6835       2.6897       0.1043       5.8923       0.0000       0.0069       0.0120       0.0000       0.0000       0.0000       0.0000       0.0023       0.0023       0.0144       0.0000       0.0000       0.0213
 5291.6328    7800.0000      79.6984       0.0070       5.7224       2.6821       0.1049       5.8605       0.0000       0.0033       0.0092       0.0019       0.0000       0.0000       0.0000       0.0014       0.0015       0.0126       0.0000       0.0000       0.0160
 5291.4804    7826.0000      82.4484       0.0047       4.7104       2.6987       0.1113       5.8720       0.0000       0.0000       0.0043       0.0051       0.0006       0.0000       0.0000       0.0003       0.0009       0.0103       0.0000       0.0000       0.0103
 5291.3280    7806.0000      82.1191       0.0026       4.8393       2.6963       0.1164       5.9029       0.0000       0.0000       0.0000       0.0063       0.0027       0.0000       0.0000       0.0000       0.0028       0.0091       0.0000       0.0000       0.0091
 5291.1756    7926.0000      85.6285       0.0053       4.1649       2.7113       0.1144       5.8977       0.0000       0.0000       0.0043       0.0121       0.0029       0.0000       0.0000       0.0000       0.0030       0.0193       0.0002       0.0000       0.0193
 5291.0232    7884.0000      85.1064       0.0065       4.5978       2.7116       0.1172       5.9016       0.0000       0.0044       0.0097       0.0121       0.0013       0.0000       0.0000       0.0002       0.0015       0.0233       0.0002       0.0000       0.0277
 5290.8708    7937.0000      88.8058      -0.0011       4.1736       2.6909       0.1228       5.9059       0.0002       0.0088       0.0120       0.0091       0.0002       0.0000       0.0000       0.0003       0.0004       0.0216       0.0001       0.0000       0.0306
 5290.7184    8018.0000      91.8946      -0.0054       4.5921       2.6846       0.1271       5.9016       0.0004       0.0102       0.0109       0.0061       0.0001       0.0000       0.0000       0.0004       0.0005       0.0175       0.0001       0.0000       0.0281
 5290.5660    8036.0000      95.3629      -0.0026       4.0400       2.6833       0.1259       5.8991       0.0000       0.0068       0.0095       0.0062       0.0006       0.0000       0.0000       0.0009       0.0015       0.0172       0.0001       0.0000       0.0240
 5290.4136    8037.0000     100.6315       0.0031       4.2007       2.6909       0.1280       5.9016       0.0000       0.0036       0.0095       0.0081       0.0007       0.0000       0.0010       0.0002       0.0019       0.0196       0.0001       0.0000       0.0232
 5290.2612    8084.0000     107.1779       0.0077       4.5690       2.6913       0.1349       5.8991       0.0000       0.0028       0.0095       0.0086       0.0007       0.0000       0.0013       0.0000       0.0021       0.0202       0.0001       0.0000       0.0230
 5290.1088    8163.0000     117.9015       0.0066       4.2580       2.6571       0.1531       5.8939       0.0000       0.0021       0.0090       0.0083       0.0006       0.0000       0.0014       0.0000       0.0020       0.0194       0.0001       0.0000       0.0215
 5289.9564    7988.0000     122.3739      -0.0001       4.0565       2.6392       0.1703       5.8965       0.0000       0.0008       0.0088       0.0078       0.0004       0.0000       0.0013       0.0001       0.0018       0.0184       0.0001       0.0000       0.0191
 5289.8040    8040.0000     117.9237       0.0086       4.1411       2.6820       0.1667       5.8950       0.0000       0.0002       0.0105       0.0077       0.0005       0.0000       0.0000       0.0005       0.0010       0.0192       0.0001       0.0000       0.0194
 5289.6516    7976.0000     109.5625       0.0102       3.3959       2.6413       0.1394       5.8978       0.0000       0.0023       0.0124       0.0060       0.0003       0.0002       0.0000       0.0009       0.0014       0.0198       0.0001       0.0000       0.0221
 5289.4992    7886.0000     103.0491       0.0095       3.7380       2.6660       0.1163       5.9045       0.0000       0.0038       0.0150       0.0045       0.0001       0.0016       0.0000       0.0011       0.0028       0.0223       0.0002       0.0001       0.0261
 5289.3468    7712.0000      92.8830       0.0031       4.4442       2.6688       0.1116       5.8978       0.0000       0.0042       0.0158       0.0035       0.0000       0.0023       0.0000       0.0010       0.0033       0.0226       0.0002       0.0001       0.0267
 5289.1944    7813.0000      74.3811       0.0033       4.2026       2.6645       0.1085       5.8811       0.0000       0.0030       0.0147       0.0033       0.0000       0.0016       0.0000       0.0008       0.0025       0.0205       0.0001       0.0001       0.0236
