~VERSION INFORMATION
VERS.           2.0   :CWLS Log ASCII Standard - VERSION 2.0
WRAP.           NO    :One Line per depth step
PROD.  Schlumberger   :LAS Producer
PROG.  DLIS to ASCII 17C0-154                          :LAS Program name and version
CREA.        2010/05/08 22:27                          :LAS Creation date {YYYY/MM/DD hh:mm}
DLIS_CREA.  2010-May-08 20:41                          :DLIS Creation date and time {YYYY-MMM-DD hh:mm}
SOURCE.     ConocoPhillips Kronos-1 Run 1 CMR-LDS-CNT-GR Main Pass _268PUC.DLIS  :DLIS File Name
FILE-ID.     CMR_LDL_CNL_268PUP                        :File Identification Number
#--------------------------------------------------
~WELL INFORMATION
#MNEM.UNIT      DATA             DESCRIPTION
#---- ------ --------------   -----------------------------
STRT .M      5334.7620       :START DEPTH     
STOP .M      4697.2728       :STOP DEPTH     
STEP .M        -0.1524       :STEP     
NULL .          -999.25      :NULL VALUE
COMP .        ConocoPhillips Australia Pty Ltd         :COMPANY
WELL .        Kronos-1                                 :WELL
FLD  .        Browse Basin                             :FIELD
LOC  .        Permit: WA398-P                          :LOCATION
CNTY .        Transocean Legend                        :COUNTY
STAT .        Western Australia                        :STATE
CTRY .        Australia                                :COUNTRY
API  .                                                 :API NUMBER
UWI  .                                                 :UNIQUE WELL ID
DATE .        02-May-2010                              :LOG DATE {DD-MMM-YYYY}
SRVC .        Schlumberger                             :SERVICE COMPANY
LATI .DEG     13* 41' 53.9802"                         :LATITUDE
LONG .DEG     122* 11' 30.2352"                        :LONGITUDE
GDAT .                                                 :GeoDetic Datum
#-----------------------------------------------------------------------------
~PARAMETER INFORMATION
#MNEM.UNIT    VALUE                      DESCRIPTION
#---- -----   --------------------       ------------------------
RUN  .          1                        :RUN NUMBER
PDAT .        MSL                        :Permanent Datum
EPD  .                                   :Elevation of Permanent Datum above Mean Sea Level
LMF  .          RT                       :Logging Measured From (Name of Logging Elevation Reference)
APD  .                                   :Elevation of Depth Reference (LMF) above Permanent Datum
#-----------------------------------------------------------------------------
~CURVE INFORMATION
#MNEM.UNIT   API CODE                                  DESCRIPTION
#---- -----  --------                                  -----------------------
DEPT .M                                                :DEPTH (BOREHOLE) {F10.4}
TENS .LBF                                              :CABLE TENSION {F13.4}
GR_EDTC.GAPI                                           :EDTC Gamma Ray {F13.4}
HBDC .G/C3                                             :LDS High Resolution Bulk Density Correction {F13.4}
HLEF .                                                 :LDS High Resolution Log Spaced Photoelectric Effect {F13.4}
HROM .G/C3                                             :LDS High Resolution Corrected Bulk Density {F13.4}
HTNP .V/V                                              :HiRes Thermal Neutron Porosity {F13.4}
LCAL .IN                                               :LDS Caliper {F13.4}
CBP1 .V/V                                              :CMR Bin Porosity 1 {F13.4}
CBP2 .V/V                                              :CMR Bin Porosity 2 {F13.4}
CBP3 .V/V                                              :CMR Bin Porosity 3 {F13.4}
CBP4 .V/V                                              :CMR Bin Porosity 4 {F13.4}
CBP5 .V/V                                              :CMR Bin Porosity 5 {F13.4}
CBP6 .V/V                                              :CMR Bin Porosity 6 {F13.4}
CBP7 .V/V                                              :CMR Bin Porosity 7 {F13.4}
CBP8 .V/V                                              :CMR Bin Porosity 8 {F13.4}
CMFF .V/V                                              :CMR Free Fluid {F13.4}
CMRP_3MS.V/V                                           :CMR 3ms Porosity {F13.4}
KSDR .MD                                               :Permeability from CMR - SDR Model {F13.4}
KTIM .MD                                               :Permeability from CMR - Timur Model {F13.4}
TCMR .V/V                                              :Total CMR Porosity {F13.4}
#-----------------------------------------------------------------------------
# 
#     DEPT        TENS       GR_EDTC        HBDC         HLEF         HROM         HTNP         LCAL         CBP1         CBP2         CBP3         CBP4         CBP5         CBP6         CBP7         CBP8         CMFF       CMRP_3MS       KSDR         KTIM         TCMR
#
~A  
# ...
 5206.7460    7888.0000     136.9880       0.0039       4.0306       2.6461       0.1852       5.8528       0.0325       0.0341       0.0091       0.0068       0.0008       0.0000       0.0000       0.0016       0.0025       0.0184       0.0007       0.0005       0.0850
 5206.5936    7971.0000     138.0375       0.0001       4.0224       2.6327       0.1781       5.8435       0.0148       0.0193       0.0052       0.0014       0.0002       0.0000       0.0000       0.0003       0.0005       0.0071       0.0001       0.0001       0.0411
 5206.4412    7998.0000     137.8117       0.0022       3.8349       2.6539       0.1837       5.8387       0.0163       0.0200       0.0061       0.0000       0.0000       0.0000       0.0000       0.0000       0.0000       0.0062       0.0000       0.0000       0.0424
 5206.2888    7998.0000     141.8519       0.0020       3.5859       2.6451       0.1783       5.8326       0.0216       0.0243       0.0069       0.0000       0.0003       0.0000       0.0000       0.0000       0.0003       0.0072       0.0001       0.0000       0.0531
 5206.1364    7945.0000     140.8896       0.0058       3.4680       2.6880       0.1678       5.8570       0.0247       0.0271       0.0063       0.0000       0.0007       0.0000       0.0000       0.0001       0.0008       0.0071       0.0001       0.0000       0.0589
 5205.9840    7866.0000     142.9730       0.0038       0.4882       2.6341       0.1569       5.8631       0.0290       0.0301       0.0067       0.0002       0.0005       0.0000       0.0000       0.0004       0.0009       0.0079       0.0001       0.0000       0.0669
 5205.8316    7820.0000     141.5436       0.0089       3.9052       2.6475       0.1533       5.8543       0.0337       0.0345       0.0063       0.0000       0.0018       0.0000       0.0000       0.0001       0.0019       0.0083       0.0002       0.0003       0.0765
 5205.6792    7649.0000     142.7777       0.0061       3.4928       2.6447       0.1482       5.8426       0.0320       0.0333       0.0075       0.0000       0.0010       0.0000       0.0000       0.0002       0.0012       0.0087       0.0002       0.0001       0.0739
 5205.5268    7746.0000     140.6494       0.0024       3.6594       2.6638       0.1452       5.8336       0.0297       0.0325       0.0080       0.0000       0.0001       0.0000       0.0000       0.0004       0.0006       0.0086       0.0002       0.0000       0.0708
 5205.3744    7667.0000     135.8121      -0.0038       3.2518       2.6269       0.1428       5.8611       0.0277       0.0327       0.0074       0.0002       0.0003       0.0000       0.0000       0.0005       0.0009       0.0084       0.0002       0.0000       0.0689
 5205.2220    7794.0000     132.2049       0.0031       4.0401       2.6593       0.1339       5.8657       0.0222       0.0292       0.0065       0.0009       0.0016       0.0000       0.0000       0.0003       0.0019       0.0093       0.0001       0.0001       0.0607
 5205.0696    7737.0000     129.9712       0.0057       3.7005       2.6535       0.1259       5.8625       0.0246       0.0326       0.0075       0.0028       0.0010       0.0000       0.0000       0.0001       0.0011       0.0114       0.0002       0.0001       0.0687
 5204.9172    7951.0000     126.3115       0.0088       3.7563       2.6580       0.1203       5.8657       0.0245       0.0331       0.0090       0.0013       0.0003       0.0000       0.0000       0.0000       0.0004       0.0107       0.0002       0.0000       0.0683
 5204.7648    7732.0000     123.0364       0.0036       4.2922       2.6519       0.1197       5.8598       0.0263       0.0332       0.0088       0.0000       0.0000       0.0000       0.0000       0.0000       0.0000       0.0089       0.0001       0.0000       0.0684
 5204.6124    7954.0000     125.1251       0.0045       4.3918       2.6515       0.1288       5.8618       0.0308       0.0338       0.0067       0.0000       0.0000       0.0000       0.0002       0.0000       0.0002       0.0069       0.0001       0.0000       0.0715
 5204.4600    7978.0000     134.2919       0.0047       4.3414       2.6505       0.1480       5.8638       0.0350       0.0336       0.0038       0.0000       0.0000       0.0000       0.0010       0.0000       0.0010       0.0048       0.0002       0.0001       0.0734
 5204.3076    7969.0000     141.9811       0.0096       3.7314       2.6655       0.1710       5.8515       0.0328       0.0297       0.0063       0.0015       0.0001       0.0000       0.0010       0.0000       0.0011       0.0089       0.0002       0.0001       0.0714
 5204.1552    7900.0000     143.3793       0.0095       3.4598       2.6486       0.1922       5.8554       0.0275       0.0255       0.0093       0.0056       0.0003       0.0000       0.0004       0.0007       0.0014       0.0163       0.0003       0.0001       0.0692
 5204.0028    7788.0000     151.2541       0.0099       3.7486       2.6546       0.2030       5.8394       0.0293       0.0253       0.0100       0.0095       0.0003       0.0000       0.0000       0.0013       0.0016       0.0212       0.0006       0.0002       0.0758
 5203.8504    7729.0000     154.7664       0.0074       3.5700       2.6333       0.2107       5.8323       0.0398       0.0309       0.0078       0.0114       0.0000       0.0000       0.0000       0.0017       0.0017       0.0209       0.0009       0.0003       0.0916
 5203.6980    7813.0000     164.4885       0.0084       3.4699       2.6291       0.2138       5.8381       0.0519       0.0410       0.0038       0.0104       0.0001       0.0000       0.0000       0.0015       0.0016       0.0158       0.0012       0.0003       0.1086
 5203.5456    7666.0000     162.2458       0.0135       4.1464       2.6615       0.2224       5.8361       0.0477       0.0428       0.0132       0.0077       0.0000       0.0000       0.0000       0.0012       0.0012       0.0222       0.0016       0.0002       0.1127
 5203.3932    7866.0000     169.6566       0.0135       4.3479       2.6369       0.2257       5.8313       0.0489       0.0469       0.0168       0.0030       0.0000       0.0001       0.0008       0.0005       0.0014       0.0211       0.0016       0.0003       0.1168
 5203.2408    7704.0000     167.2804       0.0147       3.9690       2.6302       0.2349       5.8387       0.0431       0.0461       0.0145       0.0002       0.0000       0.0001       0.0017       0.0000       0.0018       0.0165       0.0011       0.0003       0.1057
 5203.0884    7686.0000     170.7098       0.0230       4.2732       2.6604       0.2406       5.8313       0.0332       0.0421       0.0099       0.0000       0.0000       0.0000       0.0018       0.0003       0.0021       0.0120       0.0005       0.0004       0.0873
 5202.9360    7708.0000     167.2506       0.0119       3.4925       2.6351       0.2486       5.8567       0.0365       0.0454       0.0095       0.0000       0.0000       0.0000       0.0001       0.0014       0.0015       0.0110       0.0006       0.0002       0.0928
 5202.7836    7720.0000     167.0926       0.0106       4.6272       2.6346       0.2527       5.8625       0.0400       0.0491       0.0102       0.0000       0.0000       0.0000       0.0000       0.0013       0.0013       0.0115       0.0008       0.0002       0.1007
 5202.6312    7837.0000     165.2353       0.0160       3.9652       2.6613       0.2469       5.8631       0.0420       0.0506       0.0105       0.0000       0.0000       0.0000       0.0000       0.0013       0.0013       0.0118       0.0009       0.0002       0.1045
 5202.4788    7876.0000     169.6439       0.0128       3.8051       2.6538       0.2374       5.8528       0.0405       0.0483       0.0107       0.0000       0.0000       0.0009       0.0004       0.0008       0.0021       0.0128       0.0008       0.0005       0.1017
 5202.3264    7952.0000     171.2638       0.0010       3.6937       2.6204       0.2324       5.8598       0.0406       0.0443       0.0101       0.0004       0.0003       0.0023       0.0008       0.0000       0.0033       0.0138       0.0008       0.0012       0.0987
