~VERSION INFORMATION
VERS.           2.0   :CWLS Log ASCII Standard - VERSION 2.0
WRAP.           NO    :One Line per depth step
PROD.  Schlumberger   :LAS Producer
PROG.  DLIS to ASCII 17C0-154                          :LAS Program name and version
CREA.        2010/05/08 22:27                          :LAS Creation date {YYYY/MM/DD hh:mm}
DLIS_CREA.  2010-May-08 20:41                          :DLIS Creation date and time {YYYY-MMM-DD hh:mm}
SOURCE.     ConocoPhillips Kronos-1 Run 1 CMR-LDS-CNT-GR Main Pass _268PUC.DLIS  :DLIS File Name
FILE-ID.     CMR_LDL_CNL_268PUP                        :File Identification Number
#--------------------------------------------------
~WELL INFORMATION
#MNEM.UNIT      DATA             DESCRIPTION
#---- ------ --------------   -----------------------------
STRT .M      5334.7620       :START DEPTH     
STOP .M      4697.2728       :STOP DEPTH     
STEP .M        -0.1524       :STEP     
NULL .          -999.25      :NULL VALUE
COMP .        ConocoPhillips Australia Pty Ltd         :COMPANY
WELL .        Kronos-1                                 :WELL
FLD  .        Browse Basin                             :FIELD
LOC  .        Permit: WA398-P                          :LOCATION
CNTY .        Transocean Legend                        :COUNTY
STAT .        Western Australia                        :STATE
CTRY .        Australia                                :COUNTRY
API  .                                                 :API NUMBER
UWI  .                                                 :UNIQUE WELL ID
DATE .        02-May-2010                              :LOG DATE {DD-MMM-YYYY}
SRVC .        Schlumberger                             :SERVICE COMPANY
LATI .DEG     13* 41' 53.9802"                         :LATITUDE
LONG .DEG     122* 11' 30.2352"                        :LONGITUDE
GDAT .                                                 :GeoDetic Datum
#-----------------------------------------------------------------------------
~PARAMETER INFORMATION
#MNEM.UNIT    VALUE                      DESCRIPTION
#---- -----   --------------------       ------------------------
RUN  .          1                        :RUN NUMBER
PDAT .        MSL                        :Permanent Datum
EPD  .                                   :Elevation of Permanent Datum above Mean Sea Level
LMF  .          RT                       :Logging Measured From (Name of Logging Elevation Reference)
APD  .                                   :Elevation of Depth Reference (LMF) above Permanent Datum
#-----------------------------------------------------------------------------
~CURVE INFORMATION
#MNEM.UNIT   API CODE                                  DESCRIPTION
#---- -----  --------                                  -----------------------
DEPT .M                                                :DEPTH (BOREHOLE) {F10.4}
TENS .LBF                                              :CABLE TENSION {F13.4}
GR_EDTC.GAPI                                           :EDTC Gamma Ray {F13.4}
HBDC .G/C3                                             :LDS High Resolution Bulk Density Correction {F13.4}
HLEF .                                                 :LDS High Resolution Log Spaced Photoelectric Effect {F13.4}
HROM .G/C3                                             :LDS High Resolution Corrected Bulk Density {F13.4}
HTNP .V/V                                              :HiRes Thermal Neutron Porosity {F13.4}
LCAL .IN                                               :LDS Caliper {F13.4}
CBP1 .V/V                                              :CMR Bin Porosity 1 {F13.4}
CBP2 .V/V                                              :CMR Bin Porosity 2 {F13.4}
CBP3 .V/V                                              :CMR Bin Porosity 3 {F13.4}
CBP4 .V/V                                              :CMR Bin Porosity 4 {F13.4}
CBP5 .V/V                                              :CMR Bin Porosity 5 {F13.4}
CBP6 .V/V                                              :CMR Bin Porosity 6 {F13.4}
CBP7 .V/V                                              :CMR Bin Porosity 7 {F13.4}
CBP8 .V/V                                              :CMR Bin Porosity 8 {F13.4}
CMFF .V/V                                              :CMR Free Fluid {F13.4}
CMRP_3MS.V/V                                           :CMR 3ms Porosity {F13.4}
KSDR .MD                                               :Permeability from CMR - SDR Model {F13.4}
KTIM .MD                                               :Permeability from CMR - Timur Model {F13.4}
TCMR .V/V                                              :Total CMR Porosity {F13.4}
#-----------------------------------------------------------------------------
# 
#     DEPT        TENS       GR_EDTC        HBDC         HLEF         HROM         HTNP         LCAL         CBP1         CBP2         CBP3         CBP4         CBP5         CBP6         CBP7         CBP8         CMFF       CMRP_3MS       KSDR         KTIM         TCMR
#
~A  
# ...
 5165.5980    7632.0000     163.6701      -0.0005       3.7409       2.6416       0.2493       5.8374       0.0521       0.0461       0.0047       0.0000       0.0000       0.0024       0.0009       0.0000       0.0033       0.0080       0.0008       0.0013       0.1062
 5165.4456    7711.0000     169.4078       0.0031       4.1668       2.6360       0.2634       5.8394       0.0461       0.0447       0.0053       0.0000       0.0025       0.0005       0.0002       0.0003       0.0035       0.0088       0.0006       0.0013       0.0996
 5165.2932    7596.0000     176.0918       0.0049       3.8075       2.6339       0.2661       5.8340       0.0393       0.0426       0.0063       0.0000       0.0013       0.0000       0.0000       0.0004       0.0017       0.0080       0.0004       0.0005       0.0899
 5165.1408    7752.0000     181.5557       0.0012       4.0086       2.6327       0.2593       5.8326       0.0364       0.0420       0.0068       0.0000       0.0007       0.0000       0.0000       0.0003       0.0010       0.0079       0.0003       0.0001       0.0863
 5164.9884    7682.0000     181.3148       0.0027       3.8808       2.6355       0.2687       5.8448       0.0366       0.0423       0.0082       0.0000       0.0014       0.0001       0.0000       0.0002       0.0017       0.0098       0.0004       0.0002       0.0887
 5164.8360    7752.0000     182.8629       0.0079       4.0894       2.6463       0.2788       5.8515       0.0340       0.0397       0.0139       0.0000       0.0000       0.0000       0.0000       0.0007       0.0007       0.0146       0.0005       0.0000       0.0882
 5164.6836    7751.0000     182.5942       0.0088       3.4869       2.6349       0.2868       5.8584       0.0232       0.0337       0.0199       0.0021       0.0000       0.0000       0.0000       0.0010       0.0010       0.0230       0.0006       0.0001       0.0799
 5164.5312    8011.0000     185.5024       0.0045       3.6273       2.6224       0.2796       5.8638       0.0187       0.0324       0.0250       0.0033       0.0000       0.0000       0.0000       0.0013       0.0013       0.0297       0.0010       0.0001       0.0808
 5164.3788    7907.0000     182.5575       0.0031       3.9032       2.6516       0.2755       5.8340       0.0179       0.0326       0.0275       0.0035       0.0000       0.0000       0.0000       0.0013       0.0013       0.0323       0.0011       0.0001       0.0828
 5164.2264    7917.0000     179.8831       0.0027       3.8221       2.6456       0.2707       5.8348       0.0208       0.0341       0.0265       0.0027       0.0000       0.0000       0.0000       0.0011       0.0011       0.0303       0.0010       0.0001       0.0852
 5164.0740    7887.0000     174.5028       0.0053       3.5574       2.6641       0.2669       5.8381       0.0299       0.0395       0.0227       0.0015       0.0000       0.0000       0.0000       0.0008       0.0008       0.0251       0.0010       0.0001       0.0945
 5163.9216    7893.0000     174.1376       0.0030       3.5614       2.6458       0.2613       5.8340       0.0397       0.0434       0.0141       0.0005       0.0001       0.0000       0.0000       0.0002       0.0003       0.0149       0.0007       0.0000       0.0980
 5163.7692    7791.0000     175.3168       0.0058       3.5073       2.6542       0.2592       5.8421       0.0498       0.0467       0.0085       0.0010       0.0002       0.0000       0.0000       0.0000       0.0003       0.0098       0.0007       0.0000       0.1062
 5163.6168    7698.0000     173.3577       0.0055       3.7732       2.6374       0.2585       5.8313       0.0536       0.0482       0.0074       0.0008       0.0002       0.0000       0.0000       0.0003       0.0005       0.0087       0.0008       0.0000       0.1105
 5163.4644    7635.0000     171.8794       0.0087       4.2179       2.6641       0.2488       5.8348       0.0511       0.0479       0.0093       0.0000       0.0000       0.0000       0.0000       0.0008       0.0008       0.0102       0.0008       0.0001       0.1091
 5163.3120    7590.0000     169.3121       0.0030       3.5855       2.6497       0.2414       5.8381       0.0487       0.0471       0.0105       0.0000       0.0000       0.0000       0.0000       0.0008       0.0008       0.0113       0.0008       0.0001       0.1072
 5163.1596    7788.0000     166.3632       0.0000       4.2719       2.6475       0.2333       5.8336       0.0423       0.0415       0.0201       0.0024       0.0000       0.0000       0.0000       0.0009       0.0009       0.0234       0.0013       0.0001       0.1072
 5163.0072    7597.0000     166.0784       0.0035       3.7623       2.6515       0.2332       5.8340       0.0373       0.0391       0.0190       0.0041       0.0000       0.0000       0.0000       0.0011       0.0011       0.0242       0.0012       0.0001       0.1006
 5162.8548    7878.0000     166.8969       0.0072       3.8788       2.6640       0.2322       5.8340       0.0366       0.0406       0.0144       0.0037       0.0001       0.0000       0.0000       0.0012       0.0013       0.0195       0.0009       0.0002       0.0966
 5162.7024    7814.0000     172.8363       0.0099       3.8650       2.6624       0.2374       5.8438       0.0394       0.0435       0.0103       0.0027       0.0003       0.0000       0.0000       0.0011       0.0014       0.0144       0.0008       0.0002       0.0973
 5162.5500    7878.0000     175.3458       0.0062       3.3258       2.6575       0.2409       5.8326       0.0412       0.0423       0.0082       0.0048       0.0002       0.0000       0.0000       0.0007       0.0009       0.0139       0.0007       0.0001       0.0974
 5162.3976    7806.0000     176.0041       0.0012       3.1610       2.6412       0.2416       5.8299       0.0368       0.0373       0.0089       0.0069       0.0000       0.0000       0.0000       0.0001       0.0002       0.0160       0.0006       0.0000       0.0900
 5162.2452    7887.0000     175.5294       0.0023       3.4283       2.6574       0.2365       5.8348       0.0352       0.0362       0.0074       0.0050       0.0002       0.0001       0.0000       0.0000       0.0004       0.0128       0.0004       0.0000       0.0842
 5162.0928    8074.0000     173.9218       0.0081       3.2736       2.6737       0.2293       5.8259       0.0371       0.0386       0.0056       0.0020       0.0002       0.0006       0.0002       0.0000       0.0011       0.0087       0.0003       0.0001       0.0843
 5161.9404    7817.0000     168.4217       0.0133       4.8730       2.6847       0.2307       5.8177       0.0403       0.0418       0.0046       0.0000       0.0000       0.0009       0.0005       0.0002       0.0016       0.0062       0.0004       0.0002       0.0883
 5161.7880    7857.0000     167.4661       0.0110       4.5113       2.6816       0.2286       5.8297       0.0401       0.0417       0.0043       0.0000       0.0000       0.0001       0.0000       0.0010       0.0012       0.0055       0.0003       0.0001       0.0872
 5161.6356    7827.0000     163.7796       0.0051       3.6438       2.6429       0.2352       5.8286       0.0321       0.0358       0.0069       0.0000       0.0000       0.0000       0.0000       0.0015       0.0015       0.0085       0.0003       0.0001       0.0764
 5161.4832    7755.0000     164.9429       0.0052       4.1365       2.6587       0.2298       5.8246       0.0274       0.0316       0.0080       0.0000       0.0000       0.0000       0.0000       0.0014       0.0014       0.0094       0.0002       0.0001       0.0684
 5161.3308    7635.0000     159.0477       0.0066       4.3396       2.6687       0.2228       5.8286       0.0251       0.0290       0.0082       0.0000       0.0000       0.0000       0.0000       0.0013       0.0013       0.0095       0.0001       0.0001       0.0636
 5161.1784    7624.0000     158.9366       0.0104       3.6710       2.6660       0.2207       5.8272       0.0248       0.0288       0.0082       0.0000       0.0000       0.0000       0.0000       0.0013       0.0013       0.0095       0.0001       0.0001       0.0631
