~VERSION INFORMATION
VERS.           2.0   :CWLS Log ASCII Standard - VERSION 2.0
WRAP.           NO    :One Line per depth step
PROD.  Schlumberger   :LAS Producer
PROG.  DLIS to ASCII 17C0-154                          :LAS Program name and version
CREA.        2010/05/08 22:27                          :LAS Creation date {YYYY/MM/DD hh:mm}
DLIS_CREA.  2010-May-08 20:41                          :DLIS Creation date and time {YYYY-MMM-DD hh:mm}
SOURCE.     ConocoPhillips Kronos-1 Run 1 CMR-LDS-CNT-GR Main Pass _268PUC.DLIS  :DLIS File Name
FILE-ID.     CMR_LDL_CNL_268PUP                        :File Identification Number
#--------------------------------------------------
~WELL INFORMATION
#MNEM.UNIT      DATA             DESCRIPTION
#---- ------ --------------   -----------------------------
STRT .M      5334.7620       :START DEPTH     
STOP .M      4697.2728       :STOP DEPTH     
STEP .M        -0.1524       :STEP     
NULL .          -999.25      :NULL VALUE
COMP .        ConocoPhillips Australia Pty Ltd         :COMPANY
WELL .        Kronos-1                                 :WELL
FLD  .        Browse Basin                             :FIELD
LOC  .        Permit: WA398-P                          :LOCATION
CNTY .        Transocean Legend                        :COUNTY
STAT .        Western Australia                        :STATE
CTRY .        Australia                                :COUNTRY
API  .                                                 :API NUMBER
UWI  .                                                 :UNIQUE WELL ID
DATE .        02-May-2010                              :LOG DATE {DD-MMM-YYYY}
SRVC .        Schlumberger                             :SERVICE COMPANY
LATI .DEG     13* 41' 53.9802"                         :LATITUDE
LONG .DEG     122* 11' 30.2352"                        :LONGITUDE
GDAT .                                                 :GeoDetic Datum
#-----------------------------------------------------------------------------
~PARAMETER INFORMATION
#MNEM.UNIT    VALUE                      DESCRIPTION
#---- -----   --------------------       ------------------------
RUN  .          1                        :RUN NUMBER
PDAT .        MSL                        :Permanent Datum
EPD  .                                   :Elevation of Permanent Datum above Mean Sea Level
LMF  .          RT                       :Logging Measured From (Name of Logging Elevation Reference)
APD  .                                   :Elevation of Depth Reference (LMF) above Permanent Datum
#-----------------------------------------------------------------------------
~CURVE INFORMATION
#MNEM.UNIT   API CODE                                  DESCRIPTION
#---- -----  --------                                  -----------------------
DEPT .M                                                :DEPTH (BOREHOLE) {F10.4}
TENS .LBF                                              :CABLE TENSION {F13.4}
GR_EDTC.GAPI                                           :EDTC Gamma Ray {F13.4}
HBDC .G/C3                                             :LDS High Resolution Bulk Density Correction {F13.4}
HLEF .                                                 :LDS High Resolution Log Spaced Photoelectric Effect {F13.4}
HROM .G/C3                                             :LDS High Resolution Corrected Bulk Density {F13.4}
HTNP .V/V                                              :HiRes Thermal Neutron Porosity {F13.4}
LCAL .IN                                               :LDS Caliper {F13.4}
CBP1 .V/V                                              :CMR Bin Porosity 1 {F13.4}
CBP2 .V/V                                              :CMR Bin Porosity 2 {F13.4}
CBP3 .V/V                                              :CMR Bin Porosity 3 {F13.4}
CBP4 .V/V                                              :CMR Bin Porosity 4 {F13.4}
CBP5 .V/V                                              :CMR Bin Porosity 5 {F13.4}
CBP6 .V/V                                              :CMR Bin Porosity 6 {F13.4}
CBP7 .V/V                                              :CMR Bin Porosity 7 {F13.4}
CBP8 .V/V                                              :CMR Bin Porosity 8 {F13.4}
CMFF .V/V                                              :CMR Free Fluid {F13.4}
CMRP_3MS.V/V                                           :CMR 3ms Porosity {F13.4}
KSDR .MD                                               :Permeability from CMR - SDR Model {F13.4}
KTIM .MD                                               :Permeability from CMR - Timur Model {F13.4}
TCMR .V/V                                              :Total CMR Porosity {F13.4}
#-----------------------------------------------------------------------------
# 
#     DEPT        TENS       GR_EDTC        HBDC         HLEF         HROM         HTNP         LCAL         CBP1         CBP2         CBP3         CBP4         CBP5         CBP6         CBP7         CBP8         CMFF       CMRP_3MS       KSDR         KTIM         TCMR
#
~A  
# ...
 4744.9740    7672.0000      29.7279      -0.8229      55.8908       2.2766       0.4155       6.0618       0.0117       0.0000       0.0082       0.0234       0.0010       0.0093       0.0000       0.0000       0.0103       0.0419       0.0035       0.0047       0.0536
 4744.8216    7598.0000      26.8647      -0.8070     324.1842       2.3061       0.3958       6.0455       0.0117       0.0000       0.0082       0.0234       0.0010       0.0093       0.0000       0.0000       0.0103       0.0419       0.0035       0.0047       0.0536
 4744.6692    7446.0000      23.5028      -0.8078       9.1775       2.3231       0.3658       6.0699       0.0117       0.0000       0.0082       0.0234       0.0010       0.0093       0.0000       0.0000       0.0103       0.0419       0.0035       0.0047       0.0536
 4744.5168    7524.0000      23.6656      -0.8324      15.3163       2.2900       0.3778       6.0374       0.0117       0.0000       0.0082       0.0234       0.0010       0.0093       0.0000       0.0000       0.0103       0.0419       0.0035       0.0047       0.0536
 4744.3644    7618.0000      29.4346      -0.8590      74.4958       2.2185       0.3915       6.0333       0.0117       0.0000       0.0082       0.0234       0.0010       0.0093       0.0000       0.0000       0.0103       0.0419       0.0035       0.0047       0.0536
 4744.2120    7497.0000      34.6392      -0.8090      96.7547       2.3711       0.4145       6.0638       0.0117       0.0000       0.0082       0.0234       0.0010       0.0093       0.0000       0.0000       0.0103       0.0419       0.0035       0.0047       0.0536
 4744.0596    7515.0000      38.0034      -0.7886       7.2217       2.4369       0.3903       6.0089       0.0117       0.0000       0.0082       0.0234       0.0010       0.0093       0.0000       0.0000       0.0103       0.0419       0.0035       0.0047       0.0536
 4743.9072    7495.0000      36.3661      -0.8655      26.0848       2.2826       0.3756       6.0577       0.0117       0.0000       0.0082       0.0234       0.0010       0.0093       0.0000       0.0000       0.0103       0.0419       0.0035       0.0047       0.0536
 4743.7548    7505.0000      31.7089      -0.8752      14.6637       2.3125       0.3812       6.0699       0.0117       0.0000       0.0082       0.0234       0.0010       0.0093       0.0000       0.0000       0.0103       0.0419       0.0035       0.0047       0.0536
 4743.6024    7544.0000      28.2703      -0.8119      15.2415       2.3718       0.3949       6.0537       0.0117       0.0000       0.0082       0.0234       0.0010       0.0093       0.0000       0.0000       0.0103       0.0419       0.0035       0.0047       0.0536
 4743.4500    7580.0000      27.9256      -0.8487      10.9001       2.1867       0.4132       6.0618       0.0117       0.0000       0.0082       0.0234       0.0010       0.0093       0.0000       0.0000       0.0103       0.0419       0.0035       0.0047       0.0536
 4743.2976    7591.0000      25.8573      -0.8701      15.2973       2.3312       0.4014       6.0211       0.0117       0.0000       0.0082       0.0234       0.0010       0.0093       0.0000       0.0000       0.0103       0.0419       0.0035       0.0047       0.0536
 4743.1452    7661.0000      23.2709      -1.0030      13.8425       2.2078       0.4116       6.0455       0.0117       0.0000       0.0082       0.0234       0.0010       0.0093       0.0000       0.0000       0.0103       0.0419       0.0035       0.0047       0.0536
 4742.9928    7536.0000      20.5162      -0.9922     262.4031       2.1548       0.4186       6.0699       0.0117       0.0000       0.0082       0.0234       0.0010       0.0093       0.0000       0.0000       0.0103       0.0419       0.0035       0.0047       0.0536
 4742.8404    7614.0000      24.1251      -0.8504     120.9705       2.3761       0.4401       6.0374       0.0117       0.0000       0.0082       0.0234       0.0010       0.0093       0.0000       0.0000       0.0103       0.0419       0.0035       0.0047       0.0536
 4742.6880    7504.0000      28.6038      -0.8578      16.0620       2.1647       0.4599       6.0618       0.0117       0.0000       0.0082       0.0234       0.0010       0.0093       0.0000       0.0000       0.0103       0.0419       0.0035       0.0047       0.0536
 4742.5356    7525.0000      31.7033      -0.7893     533.2202       2.3916       0.4850       6.0537       0.0117       0.0000       0.0082       0.0234       0.0010       0.0093       0.0000       0.0000       0.0103       0.0419       0.0035       0.0047       0.0536
 4742.3832    7524.0000      33.2651      -0.8469       9.1171       2.2320       0.4815       6.0455       0.0117       0.0000       0.0082       0.0234       0.0010       0.0093       0.0000       0.0000       0.0103       0.0419       0.0035       0.0047       0.0536
 4742.2308    7489.0000      31.0956      -0.8234     439.8443       2.3091       0.4789       6.0618       0.0117       0.0000       0.0082       0.0234       0.0010       0.0093       0.0000       0.0000       0.0103       0.0419       0.0035       0.0047       0.0536
 4742.0784    7410.0000      31.4071      -0.8397      10.1927       2.2297       0.4652       6.0374       0.0117       0.0000       0.0082       0.0234       0.0010       0.0093       0.0000       0.0000       0.0103       0.0419       0.0035       0.0047       0.0536
 4741.9260    7526.0000      30.4402      -0.8449      16.1540       2.2395       0.4307       6.0374       0.0117       0.0000       0.0082       0.0234       0.0010       0.0093       0.0000       0.0000       0.0103       0.0419       0.0035       0.0047       0.0536
 4741.7736    7530.0000      31.1577      -0.8398       8.6602       2.2788       0.4198       6.0537       0.0117       0.0000       0.0082       0.0234       0.0010       0.0093       0.0000       0.0000       0.0103       0.0419       0.0035       0.0047       0.0536
 4741.6212    7552.0000      29.7435      -0.8425      16.0688       2.2674       0.4153       6.0293       0.0117       0.0000       0.0082       0.0234       0.0010       0.0093       0.0000       0.0000       0.0103       0.0419       0.0035       0.0047       0.0536
 4741.4688    7584.0000      24.9568      -0.8540      11.0116       2.2530       0.4289       6.0537       0.0117       0.0000       0.0082       0.0234       0.0010       0.0093       0.0000       0.0000       0.0103       0.0419       0.0035       0.0047       0.0536
 4741.3164    7513.0000      28.2475      -0.8568      14.9819       2.2529       0.4449       6.0699       0.0117       0.0000       0.0082       0.0234       0.0010       0.0093       0.0000       0.0000       0.0103       0.0419       0.0035       0.0047       0.0536
 4741.1640    7575.0000      31.2929      -0.8682      16.7473       2.1831       0.4677       6.0455       0.0117       0.0000       0.0082       0.0234       0.0010       0.0093       0.0000       0.0000       0.0103       0.0419       0.0035       0.0047       0.0536
 4741.0116    7628.0000      39.8751      -0.8096    -409.8714       2.3537       0.4644       6.0537       0.0117       0.0000       0.0082       0.0234       0.0010       0.0093       0.0000       0.0000       0.0103       0.0419       0.0035       0.0047       0.0536
 4740.8592    7537.0000      41.6007      -0.8457      37.3103       2.2074       0.4597       6.0455       0.0117       0.0000       0.0082       0.0234       0.0010       0.0093       0.0000       0.0000       0.0103       0.0419       0.0035       0.0047       0.0536
 4740.7068    7612.0000      40.8125      -0.8028      68.2034       2.3482       0.4589       6.0455       0.0117       0.0000       0.0082       0.0234       0.0010       0.0093       0.0000       0.0000       0.0103       0.0419       0.0035       0.0047       0.0536
 4740.5544    7562.0000      35.4454      -0.8408      15.1401       2.2490       0.4680       6.0699       0.0117       0.0000       0.0082       0.0234       0.0010       0.0093       0.0000       0.0000       0.0103       0.0419       0.0035       0.0047       0.0536
