~VERSION INFORMATION
VERS.           2.0   :CWLS Log ASCII Standard - VERSION 2.0
WRAP.           NO    :One Line per depth step
PROD.  Schlumberger   :LAS Producer
PROG.  DLIS to ASCII 17C0-154                          :LAS Program name and version
CREA.        2010/05/08 22:27                          :LAS Creation date {YYYY/MM/DD hh:mm}
DLIS_CREA.  2010-May-08 20:41                          :DLIS Creation date and time {YYYY-MMM-DD hh:mm}
SOURCE.     ConocoPhillips Kronos-1 Run 1 CMR-LDS-CNT-GR Main Pass _268PUC.DLIS  :DLIS File Name
FILE-ID.     CMR_LDL_CNL_268PUP                        :File Identification Number
#--------------------------------------------------
~WELL INFORMATION
#MNEM.UNIT      DATA             DESCRIPTION
#---- ------ --------------   -----------------------------
STRT .M      5334.7620       :START DEPTH     
STOP .M      4697.2728       :STOP DEPTH     
STEP .M        -0.1524       :STEP     
NULL .          -999.25      :NULL VALUE
COMP .        ConocoPhillips Australia Pty Ltd         :COMPANY
WELL .        Kronos-1                                 :WELL
FLD  .        Browse Basin                             :FIELD
LOC  .        Permit: WA398-P                          :LOCATION
CNTY .        Transocean Legend                        :COUNTY
STAT .        Western Australia                        :STATE
CTRY .        Australia                                :COUNTRY
API  .                                                 :API NUMBER
UWI  .                                                 :UNIQUE WELL ID
DATE .        02-May-2010                              :LOG DATE {DD-MMM-YYYY}
SRVC .        Schlumberger                             :SERVICE COMPANY
LATI .DEG     13* 41' 53.9802"                         :LATITUDE
LONG .DEG     122* 11' 30.2352"                        :LONGITUDE
GDAT .                                                 :GeoDetic Datum
#-----------------------------------------------------------------------------
~PARAMETER INFORMATION
#MNEM.UNIT    VALUE                      DESCRIPTION
#---- -----   --------------------       ------------------------
RUN  .          1                        :RUN NUMBER
PDAT .        MSL                        :Permanent Datum
EPD  .                                   :Elevation of Permanent Datum above Mean Sea Level
LMF  .          RT                       :Logging Measured From (Name of Logging Elevation Reference)
APD  .                                   :Elevation of Depth Reference (LMF) above Permanent Datum
#-----------------------------------------------------------------------------
~CURVE INFORMATION
#MNEM.UNIT   API CODE                                  DESCRIPTION
#---- -----  --------                                  -----------------------
DEPT .M                                                :DEPTH (BOREHOLE) {F10.4}
TENS .LBF                                              :CABLE TENSION {F13.4}
GR_EDTC.GAPI                                           :EDTC Gamma Ray {F13.4}
HBDC .G/C3                                             :LDS High Resolution Bulk Density Correction {F13.4}
HLEF .                                                 :LDS High Resolution Log Spaced Photoelectric Effect {F13.4}
HROM .G/C3                                             :LDS High Resolution Corrected Bulk Density {F13.4}
HTNP .V/V                                              :HiRes Thermal Neutron Porosity {F13.4}
LCAL .IN                                               :LDS Caliper {F13.4}
CBP1 .V/V                                              :CMR Bin Porosity 1 {F13.4}
CBP2 .V/V                                              :CMR Bin Porosity 2 {F13.4}
CBP3 .V/V                                              :CMR Bin Porosity 3 {F13.4}
CBP4 .V/V                                              :CMR Bin Porosity 4 {F13.4}
CBP5 .V/V                                              :CMR Bin Porosity 5 {F13.4}
CBP6 .V/V                                              :CMR Bin Porosity 6 {F13.4}
CBP7 .V/V                                              :CMR Bin Porosity 7 {F13.4}
CBP8 .V/V                                              :CMR Bin Porosity 8 {F13.4}
CMFF .V/V                                              :CMR Free Fluid {F13.4}
CMRP_3MS.V/V                                           :CMR 3ms Porosity {F13.4}
KSDR .MD                                               :Permeability from CMR - SDR Model {F13.4}
KTIM .MD                                               :Permeability from CMR - Timur Model {F13.4}
TCMR .V/V                                              :Total CMR Porosity {F13.4}
#-----------------------------------------------------------------------------
# 
#     DEPT        TENS       GR_EDTC        HBDC         HLEF         HROM         HTNP         LCAL         CBP1         CBP2         CBP3         CBP4         CBP5         CBP6         CBP7         CBP8         CMFF       CMRP_3MS       KSDR         KTIM         TCMR
#
~A  
# ...
 4703.8260    7528.0000      24.7077      -0.7642     122.5987       2.4657       0.5358       6.0618       0.0117       0.0000       0.0082       0.0234       0.0010       0.0093       0.0000       0.0000       0.0103       0.0419       0.0035       0.0047       0.0536
 4703.6736    7528.0000      26.7510      -0.8478      70.6620       2.2660       0.5250       6.0862       0.0117       0.0000       0.0082       0.0234       0.0010       0.0093       0.0000       0.0000       0.0103       0.0419       0.0035       0.0047       0.0536
 4703.5212    7528.0000      30.3240      -0.8732     150.6234       2.2124       0.5336       6.0374       0.0117       0.0000       0.0082       0.0234       0.0010       0.0093       0.0000       0.0000       0.0103       0.0419       0.0035       0.0047       0.0536
 4703.3688    7528.0000      33.2922      -0.8757      39.3679       2.1436       0.4978       6.0455       0.0117       0.0000       0.0082       0.0234       0.0010       0.0093       0.0000       0.0000       0.0103       0.0419       0.0035       0.0047       0.0536
 4703.2164    7528.0000      36.2954      -0.8302      56.7078       2.2977       0.5006       6.0699       0.0117       0.0000       0.0082       0.0234       0.0010       0.0093       0.0000       0.0000       0.0103       0.0419       0.0035       0.0047       0.0536
 4703.0640    7528.0000      43.4525      -0.8447      15.3438       2.3008       0.4907       5.9479       0.0117       0.0000       0.0082       0.0234       0.0010       0.0093       0.0000       0.0000       0.0103       0.0419       0.0035       0.0047       0.0536
 4702.9116    7528.0000      38.3942      -0.8577     541.3439       2.2549       0.5308       5.8828       0.0117       0.0000       0.0082       0.0234       0.0010       0.0093       0.0000       0.0000       0.0103       0.0419       0.0035       0.0047       0.0536
 4702.7592    7528.0000      31.8376      -0.8021    -547.0117       2.4133       0.5325       5.7608       0.0117       0.0000       0.0082       0.0234       0.0010       0.0093       0.0000       0.0000       0.0103       0.0419       0.0035       0.0047       0.0536
 4702.6068    7528.0000      21.7114      -0.8221      12.3959       2.2870       0.5131       5.5899       0.0117       0.0000       0.0082       0.0234       0.0010       0.0093       0.0000       0.0000       0.0103       0.0419       0.0035       0.0047       0.0536
 4702.4544    7528.0000      17.8400      -0.8359      89.2714       2.2469       0.5253       5.3540       0.0117       0.0000       0.0082       0.0234       0.0010       0.0093       0.0000       0.0000       0.0103       0.0419       0.0035       0.0047       0.0536
 4702.3020    7528.0000      17.8672      -0.8364      16.3426       2.2878       0.5297       5.0041       0.0117       0.0000       0.0082       0.0234       0.0010       0.0093       0.0000       0.0000       0.0103       0.0419       0.0035       0.0047       0.0536
 4702.1496    7528.0000      17.5690      -0.8324     260.2140       2.2886       0.4482       4.7031       0.0117       0.0000       0.0082       0.0234       0.0010       0.0093       0.0000       0.0000       0.0103       0.0419       0.0035       0.0047       0.0536
 4701.9972    7528.0000      15.5365      -0.8037      13.5627       2.3431       0.3481       4.3613       0.0117       0.0000       0.0082       0.0234       0.0010       0.0093       0.0000       0.0000       0.0103       0.0419       0.0035       0.0047       0.0536
 4701.8448    7528.0000      14.0478      -0.8020      16.3594       2.3335       0.2746       4.0115       0.0117       0.0000       0.0082       0.0234       0.0010       0.0093       0.0000       0.0000       0.0103       0.0419       0.0035       0.0047       0.0536
 4701.6924    7528.0000      12.4556      -0.8182      42.9962       2.3091       0.2519       3.7837       0.0117       0.0000       0.0082       0.0234       0.0010       0.0093       0.0000       0.0000       0.0103       0.0419       0.0035       0.0047       0.0536
 4701.5400    7528.0000      14.4881      -0.7912      85.6609       2.3744       0.2587       3.5640       0.0117       0.0000       0.0082       0.0234       0.0010       0.0093       0.0000       0.0000       0.0103       0.0419       0.0035       0.0047       0.0536
 4701.3876    7528.0000      14.1903      -0.7880      15.0802       2.3321       0.3089       3.2792       0.0117       0.0000       0.0082       0.0234       0.0010       0.0093       0.0000       0.0000       0.0103       0.0419       0.0035       0.0047       0.0536
 4701.2352    7528.0000      16.3788      -0.8049       8.8775       2.3108       0.3815       3.0840       0.0117       0.0000       0.0082       0.0234       0.0010       0.0093       0.0000       0.0000       0.0103       0.0419       0.0035       0.0047       0.0536
 4701.0828    7528.0000      19.8015      -0.7607      12.2565       2.3803       0.4551       2.9619       0.0117       0.0000       0.0082       0.0234       0.0010       0.0093       0.0000       0.0000       0.0103       0.0419       0.0035       0.0047       0.0536
 4700.9304    7528.0000      21.2858      -0.7112       6.5531       2.4649       0.4673       2.9050       0.0117       0.0000       0.0082       0.0234       0.0010       0.0093       0.0000       0.0000       0.0103       0.0419       0.0035       0.0047       0.0536
 4700.7780    7528.0000      20.6895      -0.7419     131.7067       2.3899       0.4535       2.8724       0.0117       0.0000       0.0082       0.0234       0.0010       0.0093       0.0000       0.0000       0.0103       0.0419       0.0035       0.0047       0.0536
 4700.6256    7528.0000      18.7535      -0.7860      16.3778       2.2513       0.3901       2.8968       0.0117       0.0000       0.0082       0.0234       0.0010       0.0093       0.0000       0.0000       0.0103       0.0419       0.0035       0.0047       0.0536
 4700.4732    7528.0000      20.6709      -0.7680     286.3111       2.2935       0.3673       2.8887       0.0117       0.0000       0.0082       0.0234       0.0010       0.0093       0.0000       0.0000       0.0103       0.0419       0.0035       0.0047       0.0536
 4700.3208    7528.0000      20.6669      -0.7157     120.3079       2.4150       0.3429       2.8968       0.0117       0.0000       0.0082       0.0234       0.0010       0.0093       0.0000       0.0000       0.0103       0.0419       0.0035       0.0047       0.0536
 4700.1684    7528.0000      19.4775      -0.7063      38.0638       2.3682       0.3157       2.8887       0.0117       0.0000       0.0082       0.0234       0.0010       0.0093       0.0000       0.0000       0.0103       0.0419       0.0035       0.0047       0.0536
 4700.0160    7528.0000      16.4743      -0.7668      16.1337       2.5256       0.3138       2.8968       0.0117       0.0000       0.0082       0.0234       0.0010       0.0093       0.0000       0.0000       0.0103       0.0419       0.0035       0.0047       0.0536
 4699.8636    7528.0000      18.5600      -1.0837       4.6123       2.2813       0.3282       2.8806       0.0117       0.0000       0.0082       0.0234       0.0010       0.0093       0.0000       0.0000       0.0103       0.0419       0.0035       0.0047       0.0536
 4699.7112    7528.0000      18.8610      -1.0934      38.8946       2.2847       0.3549       2.8806       0.0117       0.0000       0.0082       0.0234       0.0010       0.0093       0.0000       0.0000       0.0103       0.0419       0.0035       0.0047       0.0536
 4699.5588    7528.0000      18.4624      -0.7620      50.5787       2.6401       0.3429       2.8968       0.0117       0.0000       0.0082       0.0234       0.0010       0.0093       0.0000       0.0000       0.0103       0.0419       0.0035       0.0047       0.0536
 4699.4064    7528.0000      22.7034      -0.7515       5.5107       2.2890       0.3338       2.8887       0.0117       0.0000       0.0082       0.0234       0.0010       0.0093       0.0000       0.0000       0.0103       0.0419       0.0035       0.0047       0.0536
