~VERSION INFORMATION
VERS.           2.0   :CWLS Log ASCII Standard - VERSION 2.0
WRAP.           NO    :One Line per depth step
PROD.  Schlumberger   :LAS Producer
PROG.  DLIS to ASCII 17C0-154                          :LAS Program name and version
CREA.        2010/05/08 22:27                          :LAS Creation date {YYYY/MM/DD hh:mm}
DLIS_CREA.  2010-May-08 20:41                          :DLIS Creation date and time {YYYY-MMM-DD hh:mm}
SOURCE.     ConocoPhillips Kronos-1 Run 1 CMR-LDS-CNT-GR Main Pass _268PUC.DLIS  :DLIS File Name
FILE-ID.     CMR_LDL_CNL_268PUP                        :File Identification Number
#--------------------------------------------------
~WELL INFORMATION
#MNEM.UNIT      DATA             DESCRIPTION
#---- ------ --------------   -----------------------------
STRT .M      5334.7620       :START DEPTH     
STOP .M      4697.2728       :STOP DEPTH     
STEP .M        -0.1524       :STEP     
NULL .          -999.25      :NULL VALUE
COMP .        ConocoPhillips Australia Pty Ltd         :COMPANY
WELL .        Kronos-1                                 :WELL
FLD  .        Browse Basin                             :FIELD
LOC  .        Permit: WA398-P                          :LOCATION
CNTY .        Transocean Legend                        :COUNTY
STAT .        Western Australia                        :STATE
CTRY .        Australia                                :COUNTRY
API  .                                                 :API NUMBER
UWI  .                                                 :UNIQUE WELL ID
DATE .        02-May-2010                              :LOG DATE {DD-MMM-YYYY}
SRVC .        Schlumberger                             :SERVICE COMPANY
LATI .DEG     13* 41' 53.9802"                         :LATITUDE
LONG .DEG     122* 11' 30.2352"                        :LONGITUDE
GDAT .                                                 :GeoDetic Datum
#-----------------------------------------------------------------------------
~PARAMETER INFORMATION
#MNEM.UNIT    VALUE                      DESCRIPTION
#---- -----   --------------------       ------------------------
RUN  .          1                        :RUN NUMBER
PDAT .        MSL                        :Permanent Datum
EPD  .                                   :Elevation of Permanent Datum above Mean Sea Level
LMF  .          RT                       :Logging Measured From (Name of Logging Elevation Reference)
APD  .                                   :Elevation of Depth Reference (LMF) above Permanent Datum
#-----------------------------------------------------------------------------
~CURVE INFORMATION
#MNEM.UNIT   API CODE                                  DESCRIPTION
#---- -----  --------                                  -----------------------
DEPT .M                                                :DEPTH (BOREHOLE) {F10.4}
TENS .LBF                                              :CABLE TENSION {F13.4}
GR_EDTC.GAPI                                           :EDTC Gamma Ray {F13.4}
HBDC .G/C3                                             :LDS High Resolution Bulk Density Correction {F13.4}
HLEF .                                                 :LDS High Resolution Log Spaced Photoelectric Effect {F13.4}
HROM .G/C3                                             :LDS High Resolution Corrected Bulk Density {F13.4}
HTNP .V/V                                              :HiRes Thermal Neutron Porosity {F13.4}
LCAL .IN                                               :LDS Caliper {F13.4}
CBP1 .V/V                                              :CMR Bin Porosity 1 {F13.4}
CBP2 .V/V                                              :CMR Bin Porosity 2 {F13.4}
CBP3 .V/V                                              :CMR Bin Porosity 3 {F13.4}
CBP4 .V/V                                              :CMR Bin Porosity 4 {F13.4}
CBP5 .V/V                                              :CMR Bin Porosity 5 {F13.4}
CBP6 .V/V                                              :CMR Bin Porosity 6 {F13.4}
CBP7 .V/V                                              :CMR Bin Porosity 7 {F13.4}
CBP8 .V/V                                              :CMR Bin Porosity 8 {F13.4}
CMFF .V/V                                              :CMR Free Fluid {F13.4}
CMRP_3MS.V/V                                           :CMR 3ms Porosity {F13.4}
KSDR .MD                                               :Permeability from CMR - SDR Model {F13.4}
KTIM .MD                                               :Permeability from CMR - Timur Model {F13.4}
TCMR .V/V                                              :Total CMR Porosity {F13.4}
#-----------------------------------------------------------------------------
# 
#     DEPT        TENS       GR_EDTC        HBDC         HLEF         HROM         HTNP         LCAL         CBP1         CBP2         CBP3         CBP4         CBP5         CBP6         CBP7         CBP8         CMFF       CMRP_3MS       KSDR         KTIM         TCMR
#
~A  
# ...
 5042.1540    7611.0000      98.6349       0.1238       5.6679       2.5327       0.0711       6.8960       0.0000       0.0000       0.0071       0.0267       0.0061       0.0000       0.0009       0.0043       0.0112       0.0450       0.0140       0.0045       0.0450
 5042.0016    7650.0000     109.2950       0.1027       5.9260       2.4526       0.0785       6.9527       0.0000       0.0001       0.0162       0.0296       0.0055       0.0011       0.0038       0.0032       0.0135       0.0592       0.0292       0.0114       0.0594
 5041.8492    7443.0000     109.5254       0.0684       6.1605       2.4966       0.0851       6.2069       0.0000       0.0016       0.0241       0.0275       0.0058       0.0051       0.0040       0.0035       0.0184       0.0700       0.0541       0.0359       0.0716
 5041.6968    7637.0000      94.9032       0.1533       4.5596       2.5916       0.0852       6.0808       0.0000       0.0024       0.0263       0.0237       0.0068       0.0092       0.0025       0.0053       0.0237       0.0737       0.0879       0.0725       0.0761
 5041.5444    7669.0000      79.8079       0.2063       4.2501       2.5992       0.0808       6.3307       0.0000       0.0023       0.0221       0.0198       0.0082       0.0111       0.0013       0.0075       0.0280       0.0700       0.1191       0.1106       0.0723
 5041.3920    7613.0000      75.0479       0.2369       4.1676       2.6037       0.0767       6.5744       0.0000       0.0030       0.0149       0.0161       0.0104       0.0087       0.0034       0.0077       0.0302       0.0612       0.1254       0.1346       0.0642
 5041.2396    7635.0000      79.2671       0.2732       3.8524       2.6394       0.0746       6.7981       0.0000       0.0006       0.0120       0.0207       0.0082       0.0035       0.0091       0.0075       0.0282       0.0610       0.1706       0.1040       0.0617
 5041.0872    7567.0000      81.3160       0.1738       3.8276       2.5286       0.0816       6.7140       0.0000       0.0000       0.0105       0.0231       0.0069       0.0009       0.0098       0.0082       0.0258       0.0594       0.1639       0.0746       0.0594
 5040.9348    7513.0000      90.2416       0.0322       3.6622       2.4447       0.0887       6.4540       0.0000       0.0000       0.0098       0.0225       0.0058       0.0000       0.0076       0.0090       0.0224       0.0548       0.1204       0.0460       0.0548
 5040.7824    7522.0000      94.4246      -0.0003       2.8527       2.5086       0.0945       5.9994       0.0000       0.0000       0.0092       0.0187       0.0045       0.0000       0.0049       0.0093       0.0187       0.0466       0.0655       0.0219       0.0467
 5040.6300    7412.0000      94.0247       0.0723       3.6583       2.5793       0.0891       6.1838       0.0000       0.0000       0.0077       0.0118       0.0034       0.0000       0.0045       0.0085       0.0164       0.0359       0.0353       0.0113       0.0360
 5040.4776    7275.0000      84.3971       0.0477       3.1185       2.4957       0.0927       6.0971       0.0000       0.0002       0.0084       0.0059       0.0032       0.0051       0.0073       0.0062       0.0217       0.0360       0.0556       0.0207       0.0362
 5040.3252    7369.0000      74.0013      -0.0166       2.6614       2.4831       0.0929       5.9940       0.0000       0.0028       0.0085       0.0022       0.0043       0.0116       0.0073       0.0056       0.0288       0.0395       0.0979       0.0839       0.0424
 5040.1728    7435.0000      62.9532       0.0116       4.0621       2.5047       0.0817       6.3127       0.0000       0.0040       0.0082       0.0022       0.0068       0.0157       0.0065       0.0049       0.0339       0.0443       0.1302       0.1612       0.0483
 5040.0204    7358.0000      54.4285       0.0675       4.0815       2.5717       0.0838       6.3262       0.0000       0.0024       0.0076       0.0061       0.0088       0.0160       0.0058       0.0040       0.0346       0.0483       0.1388       0.2001       0.0507
 5039.8680    7466.0000      53.6690       0.0750       4.0074       2.5161       0.0907       6.3346       0.0000       0.0000       0.0069       0.0127       0.0070       0.0133       0.0053       0.0044       0.0300       0.0496       0.1287       0.1360       0.0496
 5039.7156    7467.0000      63.8127       0.0925       3.7879       2.5717       0.0971       6.4862       0.0000       0.0000       0.0090       0.0162       0.0015       0.0115       0.0080       0.0032       0.0243       0.0496       0.0882       0.0626       0.0496
 5039.5632    7602.0000      74.9006       0.0751       3.1374       2.5705       0.0948       6.2449       0.0000       0.0000       0.0136       0.0151       0.0001       0.0109       0.0095       0.0039       0.0245       0.0532       0.0972       0.0592       0.0532
 5039.4108    7463.0000      78.6486       0.0526       3.7637       2.5431       0.0922       6.1316       0.0000       0.0001       0.0181       0.0127       0.0019       0.0107       0.0107       0.0052       0.0284       0.0592       0.1462       0.1154       0.0594
 5039.2584    7673.0000      74.9272       0.0279       4.1025       2.4900       0.0896       6.0632       0.0000       0.0008       0.0186       0.0102       0.0066       0.0101       0.0113       0.0069       0.0348       0.0636       0.2535       0.2842       0.0643
 5039.1060    7564.0000      75.2922       0.0135       3.5612       2.4833       0.0858       5.9587       0.0000       0.0025       0.0099       0.0070       0.0140       0.0091       0.0101       0.0096       0.0428       0.0597       0.4655       0.6814       0.0621
 5038.9536    7582.0000      72.4983       0.0058       2.7036       2.4557       0.0774       5.8136       0.0000       0.0043       0.0033       0.0046       0.0170       0.0064       0.0111       0.0110       0.0456       0.0535       0.6639       0.5791       0.0578
 5038.8012    7469.0000      66.5733       0.0001       2.9077       2.4617       0.0696       5.8014       0.0000       0.0030       0.0025       0.0049       0.0091       0.0210       0.0057       0.0045       0.0403       0.0476       0.3677       0.3150       0.0507
 5038.6488    7435.0000      55.2438      -0.0023       3.6551       2.4852       0.0716       5.8042       0.0000       0.0024       0.0046       0.0043       0.0020       0.0328       0.0026       0.0000       0.0374       0.0463       0.1582       0.2050       0.0488
 5038.4964    7444.0000      59.3383      -0.0031       3.2841       2.4962       0.0838       5.8042       0.0004       0.0034       0.0067       0.0030       0.0005       0.0301       0.0076       0.0019       0.0400       0.0497       0.3433       0.3449       0.0535
 5038.3440    7538.0000      74.3155       0.0001       3.6857       2.5318       0.0983       5.8204       0.0017       0.0042       0.0058       0.0044       0.0020       0.0094       0.0229       0.0095       0.0437       0.0539       0.9573       0.6103       0.0598
 5038.1916    7297.0000      86.6550       0.0010       3.5419       2.5410       0.0947       5.8598       0.0004       0.0009       0.0059       0.0041       0.0013       0.0109       0.0079       0.0279       0.0481       0.0581      10.5039       0.7184       0.0594
 5038.0392    7522.0000      83.1729      -0.0085       2.7799       2.4883       0.0801       5.8570       0.0000       0.0000       0.0034       0.0035       0.0042       0.0099       0.0017       0.0332       0.0491       0.0559      16.0139       0.5986       0.0560
 5037.8868    7458.0000      65.3537      -0.0108       3.3602       2.4791       0.0758       5.8644       0.0000       0.0000       0.0025       0.0054       0.0061       0.0103       0.0035       0.0256       0.0455       0.0534      11.3180       0.4275       0.0534
 5037.7344    7468.0000      47.4142      -0.0111       3.6858       2.4630       0.0806       5.8950       0.0000       0.0000       0.0062       0.0100       0.0051       0.0127       0.0101       0.0131       0.0409       0.0571       1.1391       0.3768       0.0571
