~VERSION INFORMATION
VERS.           2.0   :CWLS Log ASCII Standard - VERSION 2.0
WRAP.           NO    :One Line per depth step
PROD.  Schlumberger   :LAS Producer
PROG.  DLIS to ASCII 17C0-154                          :LAS Program name and version
CREA.        2010/05/08 22:27                          :LAS Creation date {YYYY/MM/DD hh:mm}
DLIS_CREA.  2010-May-08 20:41                          :DLIS Creation date and time {YYYY-MMM-DD hh:mm}
SOURCE.     ConocoPhillips Kronos-1 Run 1 CMR-LDS-CNT-GR Main Pass _268PUC.DLIS  :DLIS File Name
FILE-ID.     CMR_LDL_CNL_268PUP                        :File Identification Number
#--------------------------------------------------
~WELL INFORMATION
#MNEM.UNIT      DATA             DESCRIPTION
#---- ------ --------------   -----------------------------
STRT .M      5334.7620       :START DEPTH     
STOP .M      4697.2728       :STOP DEPTH     
STEP .M        -0.1524       :STEP     
NULL .          -999.25      :NULL VALUE
COMP .        ConocoPhillips Australia Pty Ltd         :COMPANY
WELL .        Kronos-1                                 :WELL
FLD  .        Browse Basin                             :FIELD
LOC  .        Permit: WA398-P                          :LOCATION
CNTY .        Transocean Legend                        :COUNTY
STAT .        Western Australia                        :STATE
CTRY .        Australia                                :COUNTRY
API  .                                                 :API NUMBER
UWI  .                                                 :UNIQUE WELL ID
DATE .        02-May-2010                              :LOG DATE {DD-MMM-YYYY}
SRVC .        Schlumberger                             :SERVICE COMPANY
LATI .DEG     13* 41' 53.9802"                         :LATITUDE
LONG .DEG     122* 11' 30.2352"                        :LONGITUDE
GDAT .                                                 :GeoDetic Datum
#-----------------------------------------------------------------------------
~PARAMETER INFORMATION
#MNEM.UNIT    VALUE                      DESCRIPTION
#---- -----   --------------------       ------------------------
RUN  .          1                        :RUN NUMBER
PDAT .        MSL                        :Permanent Datum
EPD  .                                   :Elevation of Permanent Datum above Mean Sea Level
LMF  .          RT                       :Logging Measured From (Name of Logging Elevation Reference)
APD  .                                   :Elevation of Depth Reference (LMF) above Permanent Datum
#-----------------------------------------------------------------------------
~CURVE INFORMATION
#MNEM.UNIT   API CODE                                  DESCRIPTION
#---- -----  --------                                  -----------------------
DEPT .M                                                :DEPTH (BOREHOLE) {F10.4}
TENS .LBF                                              :CABLE TENSION {F13.4}
GR_EDTC.GAPI                                           :EDTC Gamma Ray {F13.4}
HBDC .G/C3                                             :LDS High Resolution Bulk Density Correction {F13.4}
HLEF .                                                 :LDS High Resolution Log Spaced Photoelectric Effect {F13.4}
HROM .G/C3                                             :LDS High Resolution Corrected Bulk Density {F13.4}
HTNP .V/V                                              :HiRes Thermal Neutron Porosity {F13.4}
LCAL .IN                                               :LDS Caliper {F13.4}
CBP1 .V/V                                              :CMR Bin Porosity 1 {F13.4}
CBP2 .V/V                                              :CMR Bin Porosity 2 {F13.4}
CBP3 .V/V                                              :CMR Bin Porosity 3 {F13.4}
CBP4 .V/V                                              :CMR Bin Porosity 4 {F13.4}
CBP5 .V/V                                              :CMR Bin Porosity 5 {F13.4}
CBP6 .V/V                                              :CMR Bin Porosity 6 {F13.4}
CBP7 .V/V                                              :CMR Bin Porosity 7 {F13.4}
CBP8 .V/V                                              :CMR Bin Porosity 8 {F13.4}
CMFF .V/V                                              :CMR Free Fluid {F13.4}
CMRP_3MS.V/V                                           :CMR 3ms Porosity {F13.4}
KSDR .MD                                               :Permeability from CMR - SDR Model {F13.4}
KTIM .MD                                               :Permeability from CMR - Timur Model {F13.4}
TCMR .V/V                                              :Total CMR Porosity {F13.4}
#-----------------------------------------------------------------------------
# 
#     DEPT        TENS       GR_EDTC        HBDC         HLEF         HROM         HTNP         LCAL         CBP1         CBP2         CBP3         CBP4         CBP5         CBP6         CBP7         CBP8         CMFF       CMRP_3MS       KSDR         KTIM         TCMR
#
~A  
# ...
 4914.1380    7631.0000      79.1937      -0.0009       4.9416       2.6758       0.0580       5.9143       0.0311       0.0243       0.0020       0.0030       0.0000       0.0000       0.0000       0.0000       0.0000       0.0050       0.0001       0.0000       0.0604
 4913.9856    7427.0000      75.8127      -0.0084       4.4688       2.6607       0.0601       5.9296       0.0323       0.0261       0.0013       0.0006       0.0001       0.0000       0.0000       0.0000       0.0001       0.0020       0.0001       0.0000       0.0604
 4913.8332    7453.0000      84.9134      -0.0094       3.6983       2.6708       0.0675       5.9723       0.0329       0.0281       0.0015       0.0000       0.0000       0.0000       0.0000       0.0047       0.0047       0.0062       0.0004       0.0024       0.0673
 4913.6808    7534.0000     107.9173      -0.0096       3.5345       2.6686       0.0765       5.9876       0.0361       0.0284       0.0023       0.0000       0.0000       0.0000       0.0000       0.0090       0.0090       0.0113       0.0010       0.0064       0.0757
 4913.5284    7424.0000     126.1958      -0.0107       2.9633       2.6641       0.0869       6.0150       0.0391       0.0261       0.0036       0.0003       0.0000       0.0000       0.0000       0.0094       0.0094       0.0134       0.0013       0.0083       0.0786
 4913.3760    7571.0000     122.3839      -0.0147       2.6057       2.6445       0.0853       6.0242       0.0332       0.0223       0.0061       0.0017       0.0000       0.0000       0.0000       0.0041       0.0041       0.0119       0.0003       0.0009       0.0673
 4913.2236    7326.0000     100.9022      -0.0213       3.0619       2.6214       0.0694       6.0333       0.0290       0.0242       0.0086       0.0003       0.0000       0.0000       0.0000       0.0045       0.0045       0.0135       0.0004       0.0010       0.0667
 4913.0712    7497.0000      88.4571      -0.0093       3.7035       2.6915       0.0589       6.0238       0.0217       0.0246       0.0103       0.0000       0.0000       0.0000       0.0000       0.0025       0.0025       0.0129       0.0002       0.0005       0.0592
 4912.9188    7343.0000     104.9740      -0.0028       3.9354       2.6998       0.0610       6.0120       0.0180       0.0235       0.0103       0.0006       0.0000       0.0000       0.0000       0.0008       0.0009       0.0117       0.0001       0.0000       0.0532
 4912.7664    7373.0000     130.1071      -0.0102       2.7222       2.6260       0.0668       6.0333       0.0195       0.0216       0.0078       0.0015       0.0009       0.0001       0.0000       0.0004       0.0014       0.0107       0.0001       0.0002       0.0518
 4912.6140    7397.0000     128.3870      -0.0134       3.4247       2.6351       0.0683       6.0303       0.0226       0.0199       0.0025       0.0019       0.0047       0.0005       0.0000       0.0000       0.0052       0.0096       0.0001       0.0009       0.0521
 4912.4616    7514.0000     110.4722      -0.0070       3.7492       2.6587       0.0613       6.0048       0.0245       0.0191       0.0014       0.0022       0.0045       0.0011       0.0000       0.0008       0.0064       0.0100       0.0001       0.0015       0.0536
 4912.3092    7370.0000      85.5498      -0.0051       3.7510       2.6494       0.0565       6.0120       0.0255       0.0191       0.0036       0.0084       0.0024       0.0005       0.0000       0.0014       0.0043       0.0164       0.0003       0.0009       0.0610
 4912.1568    7577.0000      84.3775      -0.0051       3.7371       2.6692       0.0548       6.0059       0.0249       0.0188       0.0064       0.0138       0.0009       0.0000       0.0000       0.0017       0.0026       0.0228       0.0006       0.0003       0.0665
 4912.0044    7628.0000      84.8245      -0.0109       3.3315       2.6599       0.0519       6.0181       0.0235       0.0184       0.0084       0.0160       0.0009       0.0000       0.0000       0.0018       0.0028       0.0271       0.0008       0.0004       0.0690
 4911.8520    7557.0000      83.4571      -0.0173       4.0138       2.6183       0.0480       5.9967       0.0231       0.0196       0.0096       0.0171       0.0017       0.0000       0.0000       0.0022       0.0039       0.0306       0.0013       0.0009       0.0732
 4911.6996    7497.0000      82.4044      -0.0019       5.8754       2.6949       0.0469       5.9845       0.0262       0.0219       0.0094       0.0124       0.0038       0.0000       0.0000       0.0019       0.0058       0.0275       0.0011       0.0023       0.0757
 4911.5472    7452.0000      85.5740      -0.0137       4.6986       2.6895       0.0542       5.9845       0.0296       0.0210       0.0038       0.0094       0.0041       0.0000       0.0000       0.0016       0.0058       0.0190       0.0006       0.0020       0.0696
 4911.3948    7423.0000      99.8220      -0.0148       2.9960       2.6528       0.0650       5.9815       0.0335       0.0183       0.0001       0.0078       0.0027       0.0000       0.0000       0.0010       0.0037       0.0116       0.0002       0.0009       0.0634
 4911.2424    7510.0000     105.3505       0.0046       3.7633       2.6840       0.0678       5.9693       0.0364       0.0171       0.0011       0.0062       0.0006       0.0000       0.0000       0.0002       0.0008       0.0082       0.0001       0.0000       0.0618
 4911.0900    7242.0000     105.3505       0.0009       3.1207       2.6459       0.0643       5.9506       0.0356       0.0222       0.0055       0.0023       0.0000       0.0000       0.0000       0.0002       0.0002       0.0080       0.0001       0.0000       0.0657
 4910.9376    7323.0000     100.7196      -0.0042       3.1561       2.6599       0.0643       5.9601       0.0348       0.0270       0.0060       0.0005       0.0000       0.0000       0.0000       0.0008       0.0008       0.0072       0.0001       0.0000       0.0690
 4910.7852    7432.0000      97.8813      -0.0035       3.6017       2.6710       0.0678       5.9876       0.0272       0.0277       0.0080       0.0000       0.0000       0.0000       0.0000       0.0009       0.0009       0.0089       0.0001       0.0000       0.0637
 4910.6328    7362.0000      98.7185      -0.0048       5.6037       2.7000       0.0704       5.9845       0.0238       0.0274       0.0092       0.0000       0.0006       0.0002       0.0000       0.0009       0.0017       0.0109       0.0001       0.0002       0.0622
 4910.4804    7444.0000     105.0494      -0.0084       3.2797       2.6644       0.0708       5.9815       0.0274       0.0281       0.0082       0.0000       0.0025       0.0005       0.0000       0.0007       0.0037       0.0119       0.0002       0.0008       0.0674
 4910.3280    7373.0000     103.8448      -0.0068       2.6217       2.6326       0.0659       5.9777       0.0322       0.0300       0.0044       0.0000       0.0059       0.0002       0.0000       0.0001       0.0063       0.0107       0.0003       0.0025       0.0729
 4910.1756    7539.0000      96.9852      -0.0092       3.0923       2.6558       0.0556       5.9815       0.0245       0.0283       0.0064       0.0002       0.0054       0.0001       0.0000       0.0003       0.0057       0.0124       0.0002       0.0017       0.0651
 4910.0232    7528.0000      85.4689      -0.0111       5.0339       2.6832       0.0502       5.9845       0.0244       0.0276       0.0051       0.0004       0.0039       0.0000       0.0000       0.0001       0.0040       0.0095       0.0001       0.0008       0.0616
 4909.8708    7493.0000      93.5059      -0.0029       3.7023       2.6829       0.0546       5.9815       0.0240       0.0253       0.0056       0.0019       0.0018       0.0000       0.0009       0.0000       0.0027       0.0102       0.0001       0.0003       0.0595
 4909.7184    7423.0000     106.2823       0.0053       2.9504       2.6686       0.0638       5.9832       0.0208       0.0213       0.0084       0.0046       0.0000       0.0001       0.0021       0.0000       0.0023       0.0153       0.0002       0.0002       0.0574
