~VERSION INFORMATION
VERS.           2.0   :CWLS Log ASCII Standard - VERSION 2.0
WRAP.           NO    :One Line per depth step
PROD.  Schlumberger   :LAS Producer
PROG.  DLIS to ASCII 17C0-154                          :LAS Program name and version
CREA.        2010/05/08 22:27                          :LAS Creation date {YYYY/MM/DD hh:mm}
DLIS_CREA.  2010-May-08 20:41                          :DLIS Creation date and time {YYYY-MMM-DD hh:mm}
SOURCE.     ConocoPhillips Kronos-1 Run 1 CMR-LDS-CNT-GR Main Pass _268PUC.DLIS  :DLIS File Name
FILE-ID.     CMR_LDL_CNL_268PUP                        :File Identification Number
#--------------------------------------------------
~WELL INFORMATION
#MNEM.UNIT      DATA             DESCRIPTION
#---- ------ --------------   -----------------------------
STRT .M      5334.7620       :START DEPTH     
STOP .M      4697.2728       :STOP DEPTH     
STEP .M        -0.1524       :STEP     
NULL .          -999.25      :NULL VALUE
COMP .        ConocoPhillips Australia Pty Ltd         :COMPANY
WELL .        Kronos-1                                 :WELL
FLD  .        Browse Basin                             :FIELD
LOC  .        Permit: WA398-P                          :LOCATION
CNTY .        Transocean Legend                        :COUNTY
STAT .        Western Australia                        :STATE
CTRY .        Australia                                :COUNTRY
API  .                                                 :API NUMBER
UWI  .                                                 :UNIQUE WELL ID
DATE .        02-May-2010                              :LOG DATE {DD-MMM-YYYY}
SRVC .        Schlumberger                             :SERVICE COMPANY
LATI .DEG     13* 41' 53.9802"                         :LATITUDE
LONG .DEG     122* 11' 30.2352"                        :LONGITUDE
GDAT .                                                 :GeoDetic Datum
#-----------------------------------------------------------------------------
~PARAMETER INFORMATION
#MNEM.UNIT    VALUE                      DESCRIPTION
#---- -----   --------------------       ------------------------
RUN  .          1                        :RUN NUMBER
PDAT .        MSL                        :Permanent Datum
EPD  .                                   :Elevation of Permanent Datum above Mean Sea Level
LMF  .          RT                       :Logging Measured From (Name of Logging Elevation Reference)
APD  .                                   :Elevation of Depth Reference (LMF) above Permanent Datum
#-----------------------------------------------------------------------------
~CURVE INFORMATION
#MNEM.UNIT   API CODE                                  DESCRIPTION
#---- -----  --------                                  -----------------------
DEPT .M                                                :DEPTH (BOREHOLE) {F10.4}
TENS .LBF                                              :CABLE TENSION {F13.4}
GR_EDTC.GAPI                                           :EDTC Gamma Ray {F13.4}
HBDC .G/C3                                             :LDS High Resolution Bulk Density Correction {F13.4}
HLEF .                                                 :LDS High Resolution Log Spaced Photoelectric Effect {F13.4}
HROM .G/C3                                             :LDS High Resolution Corrected Bulk Density {F13.4}
HTNP .V/V                                              :HiRes Thermal Neutron Porosity {F13.4}
LCAL .IN                                               :LDS Caliper {F13.4}
CBP1 .V/V                                              :CMR Bin Porosity 1 {F13.4}
CBP2 .V/V                                              :CMR Bin Porosity 2 {F13.4}
CBP3 .V/V                                              :CMR Bin Porosity 3 {F13.4}
CBP4 .V/V                                              :CMR Bin Porosity 4 {F13.4}
CBP5 .V/V                                              :CMR Bin Porosity 5 {F13.4}
CBP6 .V/V                                              :CMR Bin Porosity 6 {F13.4}
CBP7 .V/V                                              :CMR Bin Porosity 7 {F13.4}
CBP8 .V/V                                              :CMR Bin Porosity 8 {F13.4}
CMFF .V/V                                              :CMR Free Fluid {F13.4}
CMRP_3MS.V/V                                           :CMR 3ms Porosity {F13.4}
KSDR .MD                                               :Permeability from CMR - SDR Model {F13.4}
KTIM .MD                                               :Permeability from CMR - Timur Model {F13.4}
TCMR .V/V                                              :Total CMR Porosity {F13.4}
#-----------------------------------------------------------------------------
# 
#     DEPT        TENS       GR_EDTC        HBDC         HLEF         HROM         HTNP         LCAL         CBP1         CBP2         CBP3         CBP4         CBP5         CBP6         CBP7         CBP8         CMFF       CMRP_3MS       KSDR         KTIM         TCMR
#
~A  
 5334.7620    7397.0000     129.1429    -999.2500    -999.2500    -999.2500       0.0370       5.7038       0.0071       0.0102       0.0057       0.0004       0.0034       0.0000       0.0000       0.0000       0.0034       0.0094       0.0000       0.0001       0.0267
 5334.6096    7333.0000     129.1429       0.1017    -999.2500       2.7808       0.0370       5.7038       0.0071       0.0102       0.0057       0.0004       0.0034       0.0000       0.0000       0.0000       0.0034       0.0094       0.0000       0.0001       0.0267
 5334.4572    7458.0000     129.1429       0.1017       7.2307       2.7808       0.0370       5.7038       0.0071       0.0102       0.0057       0.0004       0.0034       0.0000       0.0000       0.0000       0.0034       0.0094       0.0000       0.0001       0.0267
 5334.3048    7626.0000     129.1429       0.1017       7.2307       2.7808       0.0370       5.7038       0.0071       0.0102       0.0057       0.0004       0.0034       0.0000       0.0000       0.0000       0.0034       0.0094       0.0000       0.0001       0.0267
 5334.1524    7614.0000     129.1429       0.1017       7.2307       2.7808       0.0370       5.7038       0.0071       0.0102       0.0057       0.0004       0.0034       0.0000       0.0000       0.0000       0.0034       0.0094       0.0000       0.0001       0.0267
 5334.0000    7630.0000     129.1429       0.1017       7.2307       2.7808       0.0370       5.7038       0.0071       0.0102       0.0057       0.0004       0.0034       0.0000       0.0000       0.0000       0.0034       0.0094       0.0000       0.0001       0.0267
 5333.8476    7791.0000     129.1429       0.1017       7.2307       2.7808       0.0370       5.7038       0.0071       0.0102       0.0057       0.0004       0.0034       0.0000       0.0000       0.0000       0.0034       0.0094       0.0000       0.0001       0.0267
 5333.6952    7834.0000     129.1429       0.1017       7.2307       2.7808       0.0370       5.7038       0.0071       0.0102       0.0057       0.0004       0.0034       0.0000       0.0000       0.0000       0.0034       0.0094       0.0000       0.0001       0.0267
 5333.5428    7782.0000     129.1429       0.1017       7.2307       2.7808       0.0370       5.7038       0.0071       0.0102       0.0057       0.0004       0.0034       0.0000       0.0000       0.0000       0.0034       0.0094       0.0000       0.0001       0.0267
 5333.3904    7794.0000     129.1429       0.1017       7.2307       2.7808       0.0370       5.7038       0.0071       0.0102       0.0057       0.0004       0.0034       0.0000       0.0000       0.0000       0.0034       0.0094       0.0000       0.0001       0.0267
 5333.2380    7823.0000     129.1429       0.1017       7.2307       2.7808       0.0370       5.7038       0.0071       0.0102       0.0057       0.0004       0.0034       0.0000       0.0000       0.0000       0.0034       0.0094       0.0000       0.0001       0.0267
 5333.0856    7843.0000     129.1429       0.1017       7.2307       2.7808       0.0370       5.7038       0.0071       0.0102       0.0057       0.0004       0.0034       0.0000       0.0000       0.0000       0.0034       0.0094       0.0000       0.0001       0.0267
 5332.9332    7724.0000     129.1429       0.1017       7.2307       2.7808       0.0370       5.7038       0.0071       0.0102       0.0057       0.0004       0.0034       0.0000       0.0000       0.0000       0.0034       0.0094       0.0000       0.0001       0.0267
 5332.7808    7827.0000     129.1429       0.1017       7.2307       2.7808       0.0370       5.7038       0.0071       0.0102       0.0057       0.0004       0.0034       0.0000       0.0000       0.0000       0.0034       0.0094       0.0000       0.0001       0.0267
 5332.6284    7824.0000     129.1429       0.1017       7.2307       2.7808       0.0370       5.7038       0.0071       0.0102       0.0057       0.0004       0.0034       0.0000       0.0000       0.0000       0.0034       0.0094       0.0000       0.0001       0.0267
 5332.4760    7819.0000     129.1429       0.1017       7.2307       2.7808       0.0370       5.7038       0.0071       0.0102       0.0057       0.0004       0.0034       0.0000       0.0000       0.0000       0.0034       0.0094       0.0000       0.0001       0.0267
 5332.3236    7938.0000     129.1429       0.1017       7.2307       2.7808       0.0370       5.7038       0.0071       0.0102       0.0057       0.0004       0.0034       0.0000       0.0000       0.0000       0.0034       0.0094       0.0000       0.0001       0.0267
 5332.1712    7937.0000     129.1429       0.1017       7.2307       2.7808       0.0370       5.7038       0.0071       0.0102       0.0057       0.0004       0.0034       0.0000       0.0000       0.0000       0.0034       0.0094       0.0000       0.0001       0.0267
 5332.0188    7802.0000     129.1429       0.1017       7.2307       2.7808       0.0370       5.7038       0.0071       0.0102       0.0057       0.0004       0.0034       0.0000       0.0000       0.0000       0.0034       0.0094       0.0000       0.0001       0.0267
 5331.8664    7867.0000     129.1429       0.1017       7.2307       2.7808       0.0370       5.7038       0.0071       0.0102       0.0057       0.0004       0.0034       0.0000       0.0000       0.0000       0.0034       0.0094       0.0000       0.0001       0.0267
 5331.7140    7903.0000     129.1429       0.1017       7.2307       2.7808       0.0370       5.7038       0.0071       0.0102       0.0057       0.0004       0.0034       0.0000       0.0000       0.0000       0.0034       0.0094       0.0000       0.0001       0.0267
 5331.5616    7976.0000     129.1429       0.1017       7.2307       2.7808       0.0370       5.7038       0.0071       0.0102       0.0057       0.0004       0.0034       0.0000       0.0000       0.0000       0.0034       0.0094       0.0000       0.0001       0.0267
 5331.4092    8066.0000     129.1429       0.1017       7.2307       2.7808       0.0370       5.7038       0.0071       0.0102       0.0057       0.0004       0.0034       0.0000       0.0000       0.0000       0.0034       0.0094       0.0000       0.0001       0.0267
 5331.2568    8092.0000     129.1429       0.1017       7.2307       2.7808       0.0370       5.7038       0.0071       0.0102       0.0057       0.0004       0.0034       0.0000       0.0000       0.0000       0.0034       0.0094       0.0000       0.0001       0.0267
 5331.1044    8024.0000     129.1429       0.1017       7.2307       2.7808       0.0370       5.7038       0.0071       0.0102       0.0057       0.0004       0.0034       0.0000       0.0000       0.0000       0.0034       0.0094       0.0000       0.0001       0.0267
 5330.9520    8037.0000     129.1429       0.1017       7.2307       2.7808       0.0370       5.7038       0.0071       0.0102       0.0057       0.0004       0.0034       0.0000       0.0000       0.0000       0.0034       0.0094       0.0000       0.0001       0.0267
 5330.7996    7925.0000     129.1429       0.1017       7.2307       2.7808       0.0370       5.7038       0.0071       0.0102       0.0057       0.0004       0.0034       0.0000       0.0000       0.0000       0.0034       0.0094       0.0000       0.0001       0.0267
 5330.6472    8029.0000     129.1429       0.1017       7.2307       2.7808       0.0370       5.7038       0.0071       0.0102       0.0057       0.0004       0.0034       0.0000       0.0000       0.0000       0.0034       0.0094       0.0000       0.0001       0.0267
 5330.4948    7979.0000     129.1429       0.1017       7.2307       2.7808       0.0370       5.7038       0.0071       0.0102       0.0057       0.0004       0.0034       0.0000       0.0000       0.0000       0.0034       0.0094       0.0000       0.0001       0.0267
 5330.3424    7901.0000     129.1429       0.1017       7.2307       2.7808       0.0370       5.7038       0.0071       0.0102       0.0057       0.0004       0.0034       0.0000       0.0000       0.0000       0.0034       0.0094       0.0000       0.0001       0.0267
