~VERSION INFORMATION
VERS.           2.0   :CWLS Log ASCII Standard - VERSION 2.0
WRAP.           NO    :One Line per depth step
PROD.  Schlumberger   :LAS Producer
PROG.  DLIS to ASCII 17C0-154                          :LAS Program name and version
CREA.        2010/05/08 22:27                          :LAS Creation date {YYYY/MM/DD hh:mm}
DLIS_CREA.  2010-May-08 20:41                          :DLIS Creation date and time {YYYY-MMM-DD hh:mm}
SOURCE.     ConocoPhillips Kronos-1 Run 1 CMR-LDS-CNT-GR Main Pass _268PUC.DLIS  :DLIS File Name
FILE-ID.     CMR_LDL_CNL_268PUP                        :File Identification Number
#--------------------------------------------------
~WELL INFORMATION
#MNEM.UNIT      DATA             DESCRIPTION
#---- ------ --------------   -----------------------------
STRT .M      5334.7620       :START DEPTH     
STOP .M      4697.2728       :STOP DEPTH     
STEP .M        -0.1524       :STEP     
NULL .          -999.25      :NULL VALUE
COMP .        ConocoPhillips Australia Pty Ltd         :COMPANY
WELL .        Kronos-1                                 :WELL
FLD  .        Browse Basin                             :FIELD
LOC  .        Permit: WA398-P                          :LOCATION
CNTY .        Transocean Legend                        :COUNTY
STAT .        Western Australia                        :STATE
CTRY .        Australia                                :COUNTRY
API  .                                                 :API NUMBER
UWI  .                                                 :UNIQUE WELL ID
DATE .        02-May-2010                              :LOG DATE {DD-MMM-YYYY}
SRVC .        Schlumberger                             :SERVICE COMPANY
LATI .DEG     13* 41' 53.9802"                         :LATITUDE
LONG .DEG     122* 11' 30.2352"                        :LONGITUDE
GDAT .                                                 :GeoDetic Datum
#-----------------------------------------------------------------------------
~PARAMETER INFORMATION
#MNEM.UNIT    VALUE                      DESCRIPTION
#---- -----   --------------------       ------------------------
RUN  .          1                        :RUN NUMBER
PDAT .        MSL                        :Permanent Datum
EPD  .                                   :Elevation of Permanent Datum above Mean Sea Level
LMF  .          RT                       :Logging Measured From (Name of Logging Elevation Reference)
APD  .                                   :Elevation of Depth Reference (LMF) above Permanent Datum
#-----------------------------------------------------------------------------
~CURVE INFORMATION
#MNEM.UNIT   API CODE                                  DESCRIPTION
#---- -----  --------                                  -----------------------
DEPT .M                                                :DEPTH (BOREHOLE) {F10.4}
TENS .LBF                                              :CABLE TENSION {F13.4}
GR_EDTC.GAPI                                           :EDTC Gamma Ray {F13.4}
HBDC .G/C3                                             :LDS High Resolution Bulk Density Correction {F13.4}
HLEF .                                                 :LDS High Resolution Log Spaced Photoelectric Effect {F13.4}
HROM .G/C3                                             :LDS High Resolution Corrected Bulk Density {F13.4}
HTNP .V/V                                              :HiRes Thermal Neutron Porosity {F13.4}
LCAL .IN                                               :LDS Caliper {F13.4}
CBP1 .V/V                                              :CMR Bin Porosity 1 {F13.4}
CBP2 .V/V                                              :CMR Bin Porosity 2 {F13.4}
CBP3 .V/V                                              :CMR Bin Porosity 3 {F13.4}
CBP4 .V/V                                              :CMR Bin Porosity 4 {F13.4}
CBP5 .V/V                                              :CMR Bin Porosity 5 {F13.4}
CBP6 .V/V                                              :CMR Bin Porosity 6 {F13.4}
CBP7 .V/V                                              :CMR Bin Porosity 7 {F13.4}
CBP8 .V/V                                              :CMR Bin Porosity 8 {F13.4}
CMFF .V/V                                              :CMR Free Fluid {F13.4}
CMRP_3MS.V/V                                           :CMR 3ms Porosity {F13.4}
KSDR .MD                                               :Permeability from CMR - SDR Model {F13.4}
KTIM .MD                                               :Permeability from CMR - Timur Model {F13.4}
TCMR .V/V                                              :Total CMR Porosity {F13.4}
#-----------------------------------------------------------------------------
# 
#     DEPT        TENS       GR_EDTC        HBDC         HLEF         HROM         HTNP         LCAL         CBP1         CBP2         CBP3         CBP4         CBP5         CBP6         CBP7         CBP8         CMFF       CMRP_3MS       KSDR         KTIM         TCMR
#
~A  
# ...
 4996.4340    7504.0000      35.4150       0.0080       4.9872       2.6877       0.2101       5.9086       0.0087       0.0211       0.0210       0.0013       0.0000       0.0000       0.0000       0.0010       0.0010       0.0233       0.0002       0.0000       0.0531
 4996.2816    7544.0000      35.7415       0.0127       4.5526       2.7271       0.2146       5.8977       0.0083       0.0175       0.0195       0.0029       0.0000       0.0000       0.0000       0.0009       0.0009       0.0233       0.0002       0.0000       0.0491
 4996.1292    7473.0000      38.3049       0.0082       5.6312       2.7219       0.2160       5.8977       0.0084       0.0147       0.0157       0.0046       0.0002       0.0000       0.0000       0.0008       0.0010       0.0213       0.0002       0.0000       0.0444
 4995.9768    7464.0000      40.1059       0.0008       5.1212       2.7411       0.2074       5.8706       0.0120       0.0160       0.0113       0.0043       0.0019       0.0002       0.0000       0.0005       0.0027       0.0182       0.0001       0.0004       0.0462
 4995.8244    7376.0000      42.1152      -0.0021       4.8292       2.7217       0.1935       5.8976       0.0172       0.0210       0.0100       0.0034       0.0034       0.0008       0.0000       0.0002       0.0045       0.0179       0.0003       0.0007       0.0561
 4995.6720    7280.0000      44.8135       0.0010       4.4707       2.7438       0.1839       5.8964       0.0180       0.0253       0.0172       0.0073       0.0003       0.0018       0.0001       0.0003       0.0024       0.0268       0.0006       0.0003       0.0701
 4995.5196    7340.0000      45.8607      -0.0002       4.9816       2.7603       0.1798       5.9425       0.0231       0.0315       0.0229       0.0037       0.0001       0.0004       0.0002       0.0005       0.0011       0.0277       0.0008       0.0001       0.0822
 4995.3672    7353.0000      45.8921      -0.0025       5.0536       2.7689       0.1827       6.0062       0.0249       0.0323       0.0250       0.0019       0.0000       0.0000       0.0001       0.0012       0.0014       0.0282       0.0009       0.0002       0.0855
 4995.2148    7398.0000      48.8449      -0.0065       4.1820       2.7525       0.1847       6.0671       0.0237       0.0293       0.0239       0.0021       0.0000       0.0000       0.0000       0.0015       0.0015       0.0275       0.0008       0.0002       0.0806
 4995.0624    7585.0000      53.6891      -0.0056       4.4973       2.7158       0.1839       6.1523       0.0217       0.0261       0.0216       0.0031       0.0000       0.0000       0.0000       0.0012       0.0012       0.0259       0.0006       0.0001       0.0737
 4994.9100    7585.0000      56.1016      -0.0021       5.8095       2.6799       0.1888       6.1523       0.0235       0.0282       0.0213       0.0021       0.0000       0.0000       0.0000       0.0014       0.0015       0.0248       0.0006       0.0001       0.0766
 4994.7576    7504.0000      52.8110      -0.0100       4.9970       2.6294       0.1930       6.1371       0.0246       0.0337       0.0253       0.0008       0.0000       0.0000       0.0000       0.0003       0.0003       0.0264       0.0007       0.0000       0.0847
 4994.6052    7513.0000      48.6674      -0.0096       4.4990       2.5903       0.1937       6.1188       0.0235       0.0395       0.0285       0.0004       0.0001       0.0010       0.0000       0.0001       0.0011       0.0300       0.0012       0.0002       0.0930
 4994.4528    7591.0000      47.5800       0.0053       6.5862       2.6391       0.1896       6.0882       0.0200       0.0443       0.0336       0.0007       0.0006       0.0016       0.0000       0.0001       0.0023       0.0366       0.0022       0.0006       0.1009
 4994.3004    7614.0000      48.2534       0.0058       4.9701       2.6453       0.1895       6.0699       0.0156       0.0471       0.0395       0.0015       0.0011       0.0017       0.0000       0.0000       0.0029       0.0438       0.0034       0.0010       0.1065
 4994.1480    7597.0000      51.8513      -0.0026       4.5041       2.6720       0.1895       6.0791       0.0137       0.0473       0.0408       0.0022       0.0007       0.0020       0.0000       0.0000       0.0028       0.0458       0.0037       0.0009       0.1068
 4993.9956    7678.0000      50.5410       0.0018       5.7485       2.7401       0.1955       6.0769       0.0133       0.0414       0.0286       0.0006       0.0014       0.0021       0.0000       0.0000       0.0036       0.0327       0.0016       0.0010       0.0874
 4993.8432    7626.0000      48.2540      -0.0015       3.9577       2.6864       0.1946       6.0669       0.0126       0.0326       0.0192       0.0001       0.0020       0.0031       0.0000       0.0000       0.0051       0.0244       0.0007       0.0014       0.0696
 4993.6908    7757.0000      41.9240      -0.0081       4.0927       2.6606       0.1963       6.0730       0.0133       0.0282       0.0130       0.0000       0.0027       0.0035       0.0000       0.0003       0.0065       0.0195       0.0004       0.0020       0.0611
 4993.5384    7559.0000      38.7339      -0.0077       6.5397       2.6591       0.1926       6.0943       0.0147       0.0290       0.0118       0.0000       0.0033       0.0029       0.0000       0.0007       0.0070       0.0188       0.0004       0.0024       0.0624
 4993.3860    7627.0000      37.7479       0.0088       5.1092       2.7215       0.1901       6.0913       0.0139       0.0289       0.0188       0.0002       0.0030       0.0018       0.0000       0.0005       0.0054       0.0244       0.0006       0.0016       0.0671
 4993.2336    7576.0000      36.8209       0.0306       5.9410       2.7191       0.1846       6.0974       0.0143       0.0319       0.0229       0.0003       0.0030       0.0004       0.0000       0.0020       0.0054       0.0286       0.0011       0.0019       0.0748
 4993.0812    7484.0000      39.1263       0.0319       5.0740       2.6623       0.1858       6.1035       0.0137       0.0357       0.0264       0.0006       0.0056       0.0000       0.0000       0.0021       0.0077       0.0347       0.0022       0.0058       0.0841
 4992.9288    7448.0000      38.6897       0.0029       4.3565       2.6408       0.1840       6.1065       0.0133       0.0388       0.0308       0.0032       0.0072       0.0003       0.0000       0.0020       0.0095       0.0435       0.0047       0.0105       0.0956
 4992.7764    7500.0000      39.8380       0.0038       6.3458       2.6739       0.1857       6.1218       0.0134       0.0392       0.0345       0.0069       0.0062       0.0013       0.0000       0.0023       0.0098       0.0512       0.0071       0.0128       0.1038
 4992.6240    7486.0000      38.8948       0.0042       6.4553       2.6511       0.1882       6.1889       0.0130       0.0345       0.0331       0.0071       0.0029       0.0036       0.0000       0.0027       0.0092       0.0494       0.0062       0.0096       0.0969
 4992.4716    7474.0000      38.4551      -0.0139       5.0138       2.6014       0.1924       6.2072       0.0090       0.0293       0.0332       0.0048       0.0006       0.0043       0.0004       0.0021       0.0074       0.0454       0.0039       0.0049       0.0837
 4992.3192    7407.0000      40.3109      -0.0071       5.3789       2.6363       0.1923       6.2103       0.0055       0.0283       0.0329       0.0026       0.0001       0.0040       0.0002       0.0022       0.0064       0.0419       0.0028       0.0029       0.0758
 4992.1668    7468.0000      40.3882      -0.0006       6.4572       2.6073       0.1947       6.2133       0.0027       0.0263       0.0343       0.0025       0.0001       0.0026       0.0000       0.0022       0.0050       0.0418       0.0022       0.0016       0.0708
 4992.0144    7534.0000      41.1554      -0.0001       5.5362       2.5907       0.1971       6.2103       0.0008       0.0218       0.0360       0.0043       0.0001       0.0008       0.0000       0.0021       0.0030       0.0433       0.0019       0.0005       0.0658
