~VERSION INFORMATION
VERS.           2.0   :CWLS Log ASCII Standard - VERSION 2.0
WRAP.           NO    :One Line per depth step
PROD.  Schlumberger   :LAS Producer
PROG.  DLIS to ASCII 17C0-154                          :LAS Program name and version
CREA.        2010/05/08 22:27                          :LAS Creation date {YYYY/MM/DD hh:mm}
DLIS_CREA.  2010-May-08 20:41                          :DLIS Creation date and time {YYYY-MMM-DD hh:mm}
SOURCE.     ConocoPhillips Kronos-1 Run 1 CMR-LDS-CNT-GR Main Pass _268PUC.DLIS  :DLIS File Name
FILE-ID.     CMR_LDL_CNL_268PUP                        :File Identification Number
#--------------------------------------------------
~WELL INFORMATION
#MNEM.UNIT      DATA             DESCRIPTION
#---- ------ --------------   -----------------------------
STRT .M      5334.7620       :START DEPTH     
STOP .M      4697.2728       :STOP DEPTH     
STEP .M        -0.1524       :STEP     
NULL .          -999.25      :NULL VALUE
COMP .        ConocoPhillips Australia Pty Ltd         :COMPANY
WELL .        Kronos-1                                 :WELL
FLD  .        Browse Basin                             :FIELD
LOC  .        Permit: WA398-P                          :LOCATION
CNTY .        Transocean Legend                        :COUNTY
STAT .        Western Australia                        :STATE
CTRY .        Australia                                :COUNTRY
API  .                                                 :API NUMBER
UWI  .                                                 :UNIQUE WELL ID
DATE .        02-May-2010                              :LOG DATE {DD-MMM-YYYY}
SRVC .        Schlumberger                             :SERVICE COMPANY
LATI .DEG     13* 41' 53.9802"                         :LATITUDE
LONG .DEG     122* 11' 30.2352"                        :LONGITUDE
GDAT .                                                 :GeoDetic Datum
#-----------------------------------------------------------------------------
~PARAMETER INFORMATION
#MNEM.UNIT    VALUE                      DESCRIPTION
#---- -----   --------------------       ------------------------
RUN  .          1                        :RUN NUMBER
PDAT .        MSL                        :Permanent Datum
EPD  .                                   :Elevation of Permanent Datum above Mean Sea Level
LMF  .          RT                       :Logging Measured From (Name of Logging Elevation Reference)
APD  .                                   :Elevation of Depth Reference (LMF) above Permanent Datum
#-----------------------------------------------------------------------------
~CURVE INFORMATION
#MNEM.UNIT   API CODE                                  DESCRIPTION
#---- -----  --------                                  -----------------------
DEPT .M                                                :DEPTH (BOREHOLE) {F10.4}
TENS .LBF                                              :CABLE TENSION {F13.4}
GR_EDTC.GAPI                                           :EDTC Gamma Ray {F13.4}
HBDC .G/C3                                             :LDS High Resolution Bulk Density Correction {F13.4}
HLEF .                                                 :LDS High Resolution Log Spaced Photoelectric Effect {F13.4}
HROM .G/C3                                             :LDS High Resolution Corrected Bulk Density {F13.4}
HTNP .V/V                                              :HiRes Thermal Neutron Porosity {F13.4}
LCAL .IN                                               :LDS Caliper {F13.4}
CBP1 .V/V                                              :CMR Bin Porosity 1 {F13.4}
CBP2 .V/V                                              :CMR Bin Porosity 2 {F13.4}
CBP3 .V/V                                              :CMR Bin Porosity 3 {F13.4}
CBP4 .V/V                                              :CMR Bin Porosity 4 {F13.4}
CBP5 .V/V                                              :CMR Bin Porosity 5 {F13.4}
CBP6 .V/V                                              :CMR Bin Porosity 6 {F13.4}
CBP7 .V/V                                              :CMR Bin Porosity 7 {F13.4}
CBP8 .V/V                                              :CMR Bin Porosity 8 {F13.4}
CMFF .V/V                                              :CMR Free Fluid {F13.4}
CMRP_3MS.V/V                                           :CMR 3ms Porosity {F13.4}
KSDR .MD                                               :Permeability from CMR - SDR Model {F13.4}
KTIM .MD                                               :Permeability from CMR - Timur Model {F13.4}
TCMR .V/V                                              :Total CMR Porosity {F13.4}
#-----------------------------------------------------------------------------
# 
#     DEPT        TENS       GR_EDTC        HBDC         HLEF         HROM         HTNP         LCAL         CBP1         CBP2         CBP3         CBP4         CBP5         CBP6         CBP7         CBP8         CMFF       CMRP_3MS       KSDR         KTIM         TCMR
#
~A  
# ...
 5124.4500    7851.0000     136.3115       0.0039       4.3720       2.6345       0.2401       5.8937       0.0338       0.0336       0.0090       0.0000       0.0000       0.0001       0.0000       0.0002       0.0003       0.0093       0.0002       0.0000       0.0767
 5124.2976    7951.0000     111.4375       0.0031       4.7455       2.6639       0.1222       5.8923       0.0345       0.0312       0.0041       0.0000       0.0000       0.0000       0.0000       0.0002       0.0002       0.0043       0.0001       0.0000       0.0700
 5124.1452    7691.0000      89.0515       0.0038       5.1246       2.7041       0.0592       5.8644       0.0361       0.0303       0.0020       0.0000       0.0000       0.0000       0.0000       0.0010       0.0010       0.0030       0.0001       0.0001       0.0694
 5123.9928    7802.0000      74.7434      -0.0015       4.2405       2.6955       0.0343       5.8638       0.0351       0.0282       0.0022       0.0030       0.0001       0.0000       0.0000       0.0013       0.0015       0.0067       0.0002       0.0001       0.0700
 5123.8404    7818.0000      68.4774       0.0045       5.2718       2.6875       0.0290       5.8611       0.0323       0.0251       0.0034       0.0075       0.0003       0.0005       0.0000       0.0009       0.0017       0.0125       0.0002       0.0002       0.0699
 5123.6880    7608.0000      73.6932       0.0108       5.0179       2.6731       0.0330       5.8625       0.0326       0.0236       0.0033       0.0077       0.0005       0.0023       0.0000       0.0001       0.0030       0.0139       0.0003       0.0005       0.0700
 5123.5356    7649.0000      86.7002       0.0267       5.6696       2.6794       0.0416       5.8747       0.0289       0.0245       0.0028       0.0015       0.0046       0.0005       0.0000       0.0000       0.0051       0.0094       0.0002       0.0012       0.0628
 5123.3832    7487.0000     114.7835       0.0424       3.3096       2.6941       0.0533       5.8937       0.0303       0.0260       0.0024       0.0000       0.0053       0.0003       0.0000       0.0000       0.0057       0.0081       0.0002       0.0016       0.0644
 5123.2308    7554.0000     133.6743       0.0179       3.7008       2.6550       0.0832       5.8760       0.0304       0.0257       0.0052       0.0010       0.0045       0.0003       0.0000       0.0001       0.0049       0.0111       0.0002       0.0013       0.0672
 5123.0784    7564.0000     130.7986       0.0094       4.7603       2.6594       0.1341       5.8923       0.0266       0.0238       0.0102       0.0029       0.0028       0.0000       0.0000       0.0004       0.0032       0.0164       0.0002       0.0006       0.0668
 5122.9260    7568.0000     103.9969       0.0075       5.6460       2.6785       0.1197       5.9031       0.0199       0.0227       0.0132       0.0044       0.0000       0.0000       0.0000       0.0011       0.0011       0.0187       0.0002       0.0000       0.0614
 5122.7736    7576.0000      71.3975       0.0185       5.7055       2.6870       0.0607       5.9221       0.0180       0.0225       0.0092       0.0009       0.0000       0.0008       0.0007       0.0002       0.0017       0.0118       0.0001       0.0001       0.0523
 5122.6212    7767.0000      50.0849       0.0235       5.6456       2.6955       0.0386       5.9208       0.0135       0.0196       0.0059       0.0000       0.0000       0.0004       0.0003       0.0000       0.0008       0.0067       0.0000       0.0000       0.0397
 5122.4688    7673.0000      36.1289       0.0122       5.0404       2.6661       0.0289       5.9018       0.0070       0.0161       0.0036       0.0000       0.0000       0.0000       0.0000       0.0000       0.0001       0.0037       0.0000       0.0000       0.0268
 5122.3164    7825.0000      29.8075       0.0094       5.0965       2.6598       0.0257       5.8631       0.0011       0.0121       0.0028       0.0000       0.0000       0.0000       0.0000       0.0001       0.0001       0.0029       0.0000       0.0000       0.0162
 5122.1640    7911.0000      29.2887       0.0140       5.5286       2.6787       0.0242       5.8570       0.0000       0.0066       0.0038       0.0000       0.0000       0.0000       0.0000       0.0003       0.0003       0.0041       0.0000       0.0000       0.0106
 5122.0116    7890.0000      31.5988       0.0263       5.2080       2.6749       0.0250       5.8584       0.0184       0.0134       0.0008       0.0000       0.0000       0.0000       0.0000       0.0001       0.0001       0.0008       0.0000       0.0000       0.0326
 5121.8592    7704.0000      39.9773       0.0427       6.0323       2.7061       0.0300       5.8286       0.0221       0.0148       0.0002       0.0000       0.0000       0.0000       0.0000       0.0000       0.0000       0.0002       0.0000       0.0000       0.0371
 5121.7068    7750.0000      48.9459       0.0493       5.0850       2.7031       0.0400       5.8218       0.0215       0.0153       0.0007       0.0013       0.0002       0.0000       0.0000       0.0000       0.0002       0.0023       0.0000       0.0000       0.0391
 5121.5544    7759.0000      58.7248       0.0544       6.1103       2.7092       0.0613       5.8246       0.0231       0.0173       0.0024       0.0026       0.0004       0.0000       0.0000       0.0000       0.0005       0.0055       0.0000       0.0000       0.0458
 5121.4020    7622.0000      75.5306       0.0302       3.6545       2.6491       0.1011       5.8733       0.0289       0.0215       0.0065       0.0000       0.0000       0.0000       0.0000       0.0002       0.0002       0.0067       0.0001       0.0000       0.0571
 5121.2496    7511.0000      97.1542       0.0127       5.7528       2.6678       0.1399       5.8828       0.0306       0.0286       0.0066       0.0000       0.0000       0.0000       0.0000       0.0001       0.0001       0.0067       0.0001       0.0000       0.0659
 5121.0972    7535.0000     110.5364       0.0116       5.4046       2.6642       0.1544       5.8435       0.0319       0.0349       0.0072       0.0000       0.0000       0.0000       0.0000       0.0001       0.0001       0.0073       0.0002       0.0000       0.0741
 5120.9448    7551.0000     113.7673       0.0226       4.3957       2.6523       0.1710       5.8245       0.0316       0.0385       0.0074       0.0000       0.0001       0.0008       0.0000       0.0002       0.0012       0.0086       0.0003       0.0002       0.0788
 5120.7924    7588.0000     119.3456       0.0179       3.5200       2.6170       0.1754       5.8104       0.0302       0.0392       0.0072       0.0000       0.0006       0.0018       0.0000       0.0006       0.0030       0.0102       0.0004       0.0007       0.0796
 5120.6400    7688.0000     122.2432       0.0212       6.0303       2.6689       0.1650       5.8028       0.0288       0.0388       0.0068       0.0000       0.0024       0.0006       0.0000       0.0015       0.0045       0.0113       0.0004       0.0014       0.0789
 5120.4876    7613.0000     118.5038       0.0295       4.5600       2.6653       0.1453       5.8028       0.0331       0.0411       0.0074       0.0000       0.0006       0.0001       0.0001       0.0024       0.0032       0.0106       0.0005       0.0008       0.0849
 5120.3352    7879.0000     113.0063       0.0371       4.3929       2.6687       0.1441       5.8069       0.0424       0.0435       0.0047       0.0000       0.0000       0.0000       0.0015       0.0017       0.0033       0.0080       0.0006       0.0010       0.0938
 5120.1828    7842.0000     113.5276       0.0233       4.6559       2.6520       0.1461       5.7783       0.0518       0.0436       0.0019       0.0000       0.0000       0.0002       0.0027       0.0008       0.0036       0.0055       0.0006       0.0015       0.1010
 5120.0304    7907.0000     122.8542       0.0205       3.5815       2.6520       0.1490       5.7675       0.0529       0.0400       0.0015       0.0001       0.0006       0.0004       0.0026       0.0005       0.0040       0.0056       0.0006       0.0017       0.0985
