~VERSION INFORMATION
VERS.           2.0   :CWLS Log ASCII Standard - VERSION 2.0
WRAP.           NO    :One Line per depth step
PROD.  Schlumberger   :LAS Producer
PROG.  DLIS to ASCII 17C0-154                          :LAS Program name and version
CREA.        2010/05/08 22:27                          :LAS Creation date {YYYY/MM/DD hh:mm}
DLIS_CREA.  2010-May-08 20:41                          :DLIS Creation date and time {YYYY-MMM-DD hh:mm}
SOURCE.     ConocoPhillips Kronos-1 Run 1 CMR-LDS-CNT-GR Main Pass _268PUC.DLIS  :DLIS File Name
FILE-ID.     CMR_LDL_CNL_268PUP                        :File Identification Number
#--------------------------------------------------
~WELL INFORMATION
#MNEM.UNIT      DATA             DESCRIPTION
#---- ------ --------------   -----------------------------
STRT .M      5334.7620       :START DEPTH     
STOP .M      4697.2728       :STOP DEPTH     
STEP .M        -0.1524       :STEP     
NULL .          -999.25      :NULL VALUE
COMP .        ConocoPhillips Australia Pty Ltd         :COMPANY
WELL .        Kronos-1                                 :WELL
FLD  .        Browse Basin                             :FIELD
LOC  .        Permit: WA398-P                          :LOCATION
CNTY .        Transocean Legend                        :COUNTY
STAT .        Western Australia                        :STATE
CTRY .        Australia                                :COUNTRY
API  .                                                 :API NUMBER
UWI  .                                                 :UNIQUE WELL ID
DATE .        02-May-2010                              :LOG DATE {DD-MMM-YYYY}
SRVC .        Schlumberger                             :SERVICE COMPANY
LATI .DEG     13* 41' 53.9802"                         :LATITUDE
LONG .DEG     122* 11' 30.2352"                        :LONGITUDE
GDAT .                                                 :GeoDetic Datum
#-----------------------------------------------------------------------------
~PARAMETER INFORMATION
#MNEM.UNIT    VALUE                      DESCRIPTION
#---- -----   --------------------       ------------------------
RUN  .          1                        :RUN NUMBER
PDAT .        MSL                        :Permanent Datum
EPD  .                                   :Elevation of Permanent Datum above Mean Sea Level
LMF  .          RT                       :Logging Measured From (Name of Logging Elevation Reference)
APD  .                                   :Elevation of Depth Reference (LMF) above Permanent Datum
#-----------------------------------------------------------------------------
~CURVE INFORMATION
#MNEM.UNIT   API CODE                                  DESCRIPTION
#---- -----  --------                                  -----------------------
DEPT .M                                                :DEPTH (BOREHOLE) {F10.4}
TENS .LBF                                              :CABLE TENSION {F13.4}
GR_EDTC.GAPI                                           :EDTC Gamma Ray {F13.4}
HBDC .G/C3                                             :LDS High Resolution Bulk Density Correction {F13.4}
HLEF .                                                 :LDS High Resolution Log Spaced Photoelectric Effect {F13.4}
HROM .G/C3                                             :LDS High Resolution Corrected Bulk Density {F13.4}
HTNP .V/V                                              :HiRes Thermal Neutron Porosity {F13.4}
LCAL .IN                                               :LDS Caliper {F13.4}
CBP1 .V/V                                              :CMR Bin Porosity 1 {F13.4}
CBP2 .V/V                                              :CMR Bin Porosity 2 {F13.4}
CBP3 .V/V                                              :CMR Bin Porosity 3 {F13.4}
CBP4 .V/V                                              :CMR Bin Porosity 4 {F13.4}
CBP5 .V/V                                              :CMR Bin Porosity 5 {F13.4}
CBP6 .V/V                                              :CMR Bin Porosity 6 {F13.4}
CBP7 .V/V                                              :CMR Bin Porosity 7 {F13.4}
CBP8 .V/V                                              :CMR Bin Porosity 8 {F13.4}
CMFF .V/V                                              :CMR Free Fluid {F13.4}
CMRP_3MS.V/V                                           :CMR 3ms Porosity {F13.4}
KSDR .MD                                               :Permeability from CMR - SDR Model {F13.4}
KTIM .MD                                               :Permeability from CMR - Timur Model {F13.4}
TCMR .V/V                                              :Total CMR Porosity {F13.4}
#-----------------------------------------------------------------------------
# 
#     DEPT        TENS       GR_EDTC        HBDC         HLEF         HROM         HTNP         LCAL         CBP1         CBP2         CBP3         CBP4         CBP5         CBP6         CBP7         CBP8         CMFF       CMRP_3MS       KSDR         KTIM         TCMR
#
~A  
# ...
 4786.1220    7226.0000     104.5864      -0.0124       2.3904       2.5914       0.0798       6.0124       0.0016       0.0067       0.0000       0.0000       0.0000       0.0000       0.0000       0.0030       0.0031       0.0031       0.0000       0.0000       0.0114
 4785.9696    7145.0000      99.7635      -0.0087       3.1726       2.6239       0.0778       6.0162       0.0016       0.0067       0.0000       0.0000       0.0000       0.0000       0.0000       0.0030       0.0031       0.0031       0.0000       0.0000       0.0114
 4785.8172    7125.0000      98.4337      -0.0080       2.7844       2.6244       0.0750       6.0264       0.0022       0.0057       0.0011       0.0000       0.0000       0.0002       0.0007       0.0023       0.0032       0.0043       0.0000       0.0000       0.0122
 4785.6648    7092.0000     101.2242      -0.0097       3.3319       2.6537       0.0713       6.0358       0.0026       0.0050       0.0018       0.0000       0.0000       0.0004       0.0011       0.0018       0.0032       0.0051       0.0000       0.0000       0.0127
 4785.5124    7120.0000     104.8797      -0.0124       3.5818       2.6608       0.0731       6.0420       0.0026       0.0050       0.0018       0.0000       0.0000       0.0004       0.0011       0.0018       0.0032       0.0051       0.0000       0.0000       0.0127
 4785.3600    7172.0000     111.7842      -0.0130       2.9812       2.6396       0.0812       6.0472       0.0026       0.0050       0.0018       0.0000       0.0000       0.0004       0.0011       0.0018       0.0032       0.0051       0.0000       0.0000       0.0127
 4785.2076    7140.0000     114.6946      -0.0141       2.6327       2.6322       0.0845       6.0415       0.0026       0.0050       0.0018       0.0000       0.0000       0.0004       0.0011       0.0018       0.0032       0.0051       0.0000       0.0000       0.0127
 4785.0552    7201.0000     109.5882      -0.0087       2.4386       2.6420       0.0789       6.0428       0.0010       0.0021       0.0039       0.0003       0.0000       0.0001       0.0035       0.0007       0.0044       0.0086       0.0001       0.0000       0.0117
 4784.9028    7358.0000     102.6217      -0.0059       2.1238       2.6212       0.0708       6.0420       0.0000       0.0001       0.0053       0.0005       0.0000       0.0000       0.0052       0.0000       0.0052       0.0109       0.0001       0.0000       0.0110
 4784.7504    7341.0000      99.5893      -0.0061       2.6512       2.6440       0.0667       6.0386       0.0000       0.0001       0.0053       0.0005       0.0000       0.0000       0.0052       0.0000       0.0052       0.0109       0.0001       0.0000       0.0110
 4784.5980    7501.0000     106.6852      -0.0116       3.1007       2.6356       0.0687       6.0386       0.0000       0.0001       0.0053       0.0005       0.0000       0.0000       0.0052       0.0000       0.0052       0.0109       0.0001       0.0000       0.0110
 4784.4456    7513.0000     118.9570      -0.0092       3.1744       2.6586       0.0783       6.0420       0.0000       0.0001       0.0053       0.0005       0.0000       0.0000       0.0052       0.0000       0.0052       0.0109       0.0001       0.0000       0.0110
 4784.2932    7412.0000     126.1683      -0.0096       3.0597       2.6681       0.0892       6.0490       0.0000       0.0000       0.0032       0.0029       0.0000       0.0000       0.0021       0.0003       0.0024       0.0085       0.0001       0.0000       0.0085
 4784.1408    7524.0000     125.8097      -0.0108       2.6534       2.6451       0.0943       6.0525       0.0000       0.0000       0.0018       0.0045       0.0000       0.0000       0.0000       0.0006       0.0006       0.0069       0.0000       0.0000       0.0069
 4783.9884    7377.0000     120.2614      -0.0148       2.6045       2.6282       0.0939       6.0420       0.0000       0.0000       0.0018       0.0045       0.0000       0.0000       0.0000       0.0006       0.0006       0.0069       0.0000       0.0000       0.0069
 4783.8360    7289.0000     117.1669      -0.0100       3.0128       2.6094       0.0892       6.0490       0.0000       0.0000       0.0018       0.0045       0.0000       0.0000       0.0000       0.0006       0.0006       0.0069       0.0000       0.0000       0.0069
 4783.6836    7298.0000     114.1898      -0.0060       3.3233       2.6448       0.0833       6.0490       0.0000       0.0000       0.0018       0.0045       0.0000       0.0000       0.0000       0.0006       0.0006       0.0069       0.0000       0.0000       0.0069
 4783.5312    7334.0000     104.4336      -0.0163       3.2301       2.6134       0.0788       6.0386       0.0015       0.0011       0.0007       0.0018       0.0000       0.0000       0.0000       0.0002       0.0002       0.0028       0.0000       0.0000       0.0054
 4783.3788    7487.0000      91.7616      -0.0169       2.8884       2.6260       0.0745       6.0420       0.0025       0.0018       0.0000       0.0000       0.0000       0.0000       0.0000       0.0000       0.0000       0.0000       0.0000       0.0000       0.0043
 4783.2264    7279.0000      84.5736      -0.0143       2.6327       2.6146       0.0716       6.0394       0.0025       0.0018       0.0000       0.0000       0.0000       0.0000       0.0000       0.0000       0.0000       0.0000       0.0000       0.0000       0.0043
 4783.0740    7349.0000      85.4804      -0.0096       2.9303       2.6105       0.0715       6.0265       0.0025       0.0018       0.0000       0.0000       0.0000       0.0000       0.0000       0.0000       0.0000       0.0000       0.0000       0.0000       0.0043
 4782.9216    7618.0000      94.0308      -0.0028       3.3613       2.6588       0.0731       6.0089       0.0025       0.0018       0.0000       0.0000       0.0000       0.0000       0.0000       0.0000       0.0000       0.0000       0.0000       0.0000       0.0043
 4782.7692    7760.0000     103.3802      -0.0034       3.0079       2.6615       0.0785       6.0089       0.0045       0.0064       0.0000       0.0000       0.0000       0.0000       0.0000       0.0000       0.0000       0.0001       0.0000       0.0000       0.0109
 4782.6168    7571.0000     115.1520      -0.0013       3.5213       2.6805       0.0812       6.0059       0.0058       0.0094       0.0001       0.0000       0.0000       0.0000       0.0000       0.0000       0.0000       0.0001       0.0000       0.0000       0.0153
 4782.4644    7603.0000     114.4849       0.0038       3.6375       2.6945       0.0800       6.0150       0.0058       0.0094       0.0001       0.0000       0.0000       0.0000       0.0000       0.0000       0.0000       0.0001       0.0000       0.0000       0.0153
 4782.3120    7494.0000     108.5894       0.0044       4.1127       2.6950       0.0793       6.0150       0.0058       0.0094       0.0001       0.0000       0.0000       0.0000       0.0000       0.0000       0.0000       0.0001       0.0000       0.0000       0.0153
 4782.1596    7570.0000     102.6500      -0.0052       2.7780       2.6628       0.0810       6.0150       0.0058       0.0094       0.0001       0.0000       0.0000       0.0000       0.0000       0.0000       0.0000       0.0001       0.0000       0.0000       0.0153
 4782.0072    7547.0000     101.7722      -0.0047       3.2493       2.6531       0.0862       6.0120       0.0044       0.0101       0.0007       0.0000       0.0000       0.0000       0.0000       0.0002       0.0002       0.0009       0.0000       0.0000       0.0154
 4781.8548    7372.0000     105.3849       0.0004       3.3002       2.6459       0.0883       6.0037       0.0035       0.0105       0.0011       0.0000       0.0000       0.0000       0.0000       0.0003       0.0003       0.0014       0.0000       0.0000       0.0154
 4781.7024    7441.0000      97.8159      -0.0018       3.6904       2.6475       0.0831       6.0089       0.0035       0.0105       0.0011       0.0000       0.0000       0.0000       0.0000       0.0003       0.0003       0.0014       0.0000       0.0000       0.0154
