~VERSION INFORMATION
VERS.           2.0   :CWLS Log ASCII Standard - VERSION 2.0
WRAP.           NO    :One Line per depth step
PROD.  Schlumberger   :LAS Producer
PROG.  DLIS to ASCII 17C0-154                          :LAS Program name and version
CREA.        2010/05/08 22:27                          :LAS Creation date {YYYY/MM/DD hh:mm}
DLIS_CREA.  2010-May-08 20:41                          :DLIS Creation date and time {YYYY-MMM-DD hh:mm}
SOURCE.     ConocoPhillips Kronos-1 Run 1 CMR-LDS-CNT-GR Main Pass _268PUC.DLIS  :DLIS File Name
FILE-ID.     CMR_LDL_CNL_268PUP                        :File Identification Number
#--------------------------------------------------
~WELL INFORMATION
#MNEM.UNIT      DATA             DESCRIPTION
#---- ------ --------------   -----------------------------
STRT .M      5334.7620       :START DEPTH     
STOP .M      4697.2728       :STOP DEPTH     
STEP .M        -0.1524       :STEP     
NULL .          -999.25      :NULL VALUE
COMP .        ConocoPhillips Australia Pty Ltd         :COMPANY
WELL .        Kronos-1                                 :WELL
FLD  .        Browse Basin                             :FIELD
LOC  .        Permit: WA398-P                          :LOCATION
CNTY .        Transocean Legend                        :COUNTY
STAT .        Western Australia                        :STATE
CTRY .        Australia                                :COUNTRY
API  .                                                 :API NUMBER
UWI  .                                                 :UNIQUE WELL ID
DATE .        02-May-2010                              :LOG DATE {DD-MMM-YYYY}
SRVC .        Schlumberger                             :SERVICE COMPANY
LATI .DEG     13* 41' 53.9802"                         :LATITUDE
LONG .DEG     122* 11' 30.2352"                        :LONGITUDE
GDAT .                                                 :GeoDetic Datum
#-----------------------------------------------------------------------------
~PARAMETER INFORMATION
#MNEM.UNIT    VALUE                      DESCRIPTION
#---- -----   --------------------       ------------------------
RUN  .          1                        :RUN NUMBER
PDAT .        MSL                        :Permanent Datum
EPD  .                                   :Elevation of Permanent Datum above Mean Sea Level
LMF  .          RT                       :Logging Measured From (Name of Logging Elevation Reference)
APD  .                                   :Elevation of Depth Reference (LMF) above Permanent Datum
#-----------------------------------------------------------------------------
~CURVE INFORMATION
#MNEM.UNIT   API CODE                                  DESCRIPTION
#---- -----  --------                                  -----------------------
DEPT .M                                                :DEPTH (BOREHOLE) {F10.4}
TENS .LBF                                              :CABLE TENSION {F13.4}
GR_EDTC.GAPI                                           :EDTC Gamma Ray {F13.4}
HBDC .G/C3                                             :LDS High Resolution Bulk Density Correction {F13.4}
HLEF .                                                 :LDS High Resolution Log Spaced Photoelectric Effect {F13.4}
HROM .G/C3                                             :LDS High Resolution Corrected Bulk Density {F13.4}
HTNP .V/V                                              :HiRes Thermal Neutron Porosity {F13.4}
LCAL .IN                                               :LDS Caliper {F13.4}
CBP1 .V/V                                              :CMR Bin Porosity 1 {F13.4}
CBP2 .V/V                                              :CMR Bin Porosity 2 {F13.4}
CBP3 .V/V                                              :CMR Bin Porosity 3 {F13.4}
CBP4 .V/V                                              :CMR Bin Porosity 4 {F13.4}
CBP5 .V/V                                              :CMR Bin Porosity 5 {F13.4}
CBP6 .V/V                                              :CMR Bin Porosity 6 {F13.4}
CBP7 .V/V                                              :CMR Bin Porosity 7 {F13.4}
CBP8 .V/V                                              :CMR Bin Porosity 8 {F13.4}
CMFF .V/V                                              :CMR Free Fluid {F13.4}
CMRP_3MS.V/V                                           :CMR 3ms Porosity {F13.4}
KSDR .MD                                               :Permeability from CMR - SDR Model {F13.4}
KTIM .MD                                               :Permeability from CMR - Timur Model {F13.4}
TCMR .V/V                                              :Total CMR Porosity {F13.4}
#-----------------------------------------------------------------------------
# 
#     DEPT        TENS       GR_EDTC        HBDC         HLEF         HROM         HTNP         LCAL         CBP1         CBP2         CBP3         CBP4         CBP5         CBP6         CBP7         CBP8         CMFF       CMRP_3MS       KSDR         KTIM         TCMR
#
~A  
# ...
 5083.3020    7545.0000      83.2265      -0.0065       4.1843       2.6676       0.0829       6.0347       0.0307       0.0286       0.0040       0.0000       0.0000       0.0000       0.0000       0.0011       0.0011       0.0051       0.0001       0.0001       0.0644
 5083.1496    7531.0000      97.4337       0.0010       3.1083       2.6485       0.1003       6.0383       0.0312       0.0261       0.0061       0.0001       0.0000       0.0000       0.0000       0.0017       0.0017       0.0078       0.0001       0.0001       0.0652
 5082.9972    7448.0000     110.1897       0.0033       3.0717       2.6435       0.1135       6.0171       0.0267       0.0231       0.0070       0.0000       0.0000       0.0000       0.0000       0.0017       0.0017       0.0088       0.0001       0.0001       0.0586
 5082.8448    7372.0000     117.0342       0.0052       2.9864       2.6718       0.1064       6.0116       0.0207       0.0202       0.0077       0.0001       0.0000       0.0000       0.0000       0.0014       0.0015       0.0093       0.0001       0.0001       0.0501
 5082.6924    7545.0000     108.8471       0.0118       3.1502       2.6900       0.1007       6.0068       0.0155       0.0170       0.0080       0.0005       0.0000       0.0000       0.0001       0.0013       0.0014       0.0099       0.0000       0.0000       0.0425
 5082.5400    7534.0000     100.9187       0.0165       4.1832       2.6900       0.0951       6.0076       0.0123       0.0127       0.0065       0.0021       0.0000       0.0000       0.0006       0.0015       0.0021       0.0107       0.0000       0.0001       0.0358
 5082.3876    7539.0000      97.7898       0.0176       3.6588       2.7085       0.0959       5.9899       0.0025       0.0025       0.0013       0.0009       0.0021       0.0000       0.0001       0.0019       0.0041       0.0063       0.0002       0.0000       0.0113
 5082.2352    7584.0000     103.3422       0.0102       2.8957       2.6591       0.1069       5.9910       0.0000       0.0000       0.0006       0.0037       0.0012       0.0000       0.0000       0.0009       0.0021       0.0063       0.0001       0.0000       0.0063
 5082.0828    7740.0000     109.9878       0.0111       3.4500       2.6702       0.1262       5.9774       0.0000       0.0000       0.0006       0.0061       0.0002       0.0000       0.0000       0.0003       0.0005       0.0072       0.0000       0.0000       0.0072
 5081.9304    7692.0000     119.6683       0.0073       2.8711       2.6584       0.1414       5.9777       0.0012       0.0008       0.0006       0.0060       0.0002       0.0000       0.0003       0.0006       0.0011       0.0077       0.0000       0.0000       0.0097
 5081.7780    7724.0000     122.5832       0.0037       3.1942       2.6905       0.1472       5.9642       0.0059       0.0040       0.0032       0.0034       0.0000       0.0000       0.0016       0.0009       0.0025       0.0091       0.0000       0.0000       0.0190
 5081.6256    7759.0000     122.4781       0.0029       3.4012       2.6858       0.1461       5.9723       0.0189       0.0183       0.0037       0.0021       0.0000       0.0021       0.0009       0.0002       0.0032       0.0090       0.0001       0.0003       0.0463
 5081.4732    7765.0000     117.7989      -0.0001       3.1226       2.6535       0.1354       5.9750       0.0277       0.0259       0.0054       0.0014       0.0000       0.0027       0.0012       0.0000       0.0040       0.0107       0.0002       0.0008       0.0643
 5081.3208    7777.0000     111.8435       0.0024       3.3406       2.6779       0.1295       5.9723       0.0301       0.0287       0.0055       0.0007       0.0021       0.0016       0.0014       0.0003       0.0054       0.0116       0.0003       0.0018       0.0705
 5081.1684    7641.0000     111.5565       0.0035       3.3258       2.6992       0.1309       5.9777       0.0271       0.0284       0.0042       0.0000       0.0048       0.0000       0.0009       0.0008       0.0065       0.0107       0.0003       0.0025       0.0662
 5081.0160    7680.0000     112.6557      -0.0005       3.2559       2.6687       0.1300       6.0021       0.0220       0.0267       0.0038       0.0000       0.0030       0.0000       0.0000       0.0014       0.0044       0.0083       0.0001       0.0007       0.0570
 5080.8636    7596.0000     114.3898      -0.0027       3.4561       2.6647       0.1130       6.0116       0.0183       0.0235       0.0033       0.0000       0.0007       0.0000       0.0000       0.0015       0.0022       0.0055       0.0001       0.0002       0.0473
 5080.7112    7590.0000     108.7444       0.0016       3.4849       2.6593       0.0922       6.0089       0.0102       0.0142       0.0018       0.0002       0.0002       0.0000       0.0000       0.0008       0.0010       0.0030       0.0000       0.0000       0.0274
 5080.5588    7515.0000     103.7924      -0.0022       3.4759       2.6252       0.0836       5.9737       0.0034       0.0093       0.0015       0.0002       0.0001       0.0000       0.0000       0.0003       0.0004       0.0020       0.0000       0.0000       0.0147
 5080.4064    7730.0000     104.6195       0.0056       2.8076       2.6481       0.0854       5.9601       0.0003       0.0083       0.0019       0.0000       0.0000       0.0000       0.0000       0.0000       0.0000       0.0020       0.0000       0.0000       0.0106
 5080.2540    7666.0000     105.6790       0.0090       3.1045       2.6469       0.0945       5.9479       0.0000       0.0000       0.0000       0.0000       0.0000       0.0000       0.0000       0.0000       0.0000       0.0000       0.0000       0.0000       0.0000
 5080.1016    7688.0000     105.1095       0.0104       3.5680       2.6627       0.1020       5.9292       0.0000       0.0000       0.0027       0.0017       0.0000       0.0000       0.0002       0.0000       0.0002       0.0046       0.0000       0.0000       0.0046
 5079.9492    7841.0000     106.3538       0.0132       3.5996       2.6798       0.1034       5.9299       0.0062       0.0100       0.0093       0.0020       0.0000       0.0000       0.0001       0.0006       0.0008       0.0121       0.0001       0.0000       0.0282
 5079.7968    7788.0000     104.1866       0.0122       3.8689       2.6751       0.0966       5.9292       0.0170       0.0188       0.0113       0.0036       0.0000       0.0000       0.0000       0.0006       0.0007       0.0156       0.0001       0.0000       0.0514
 5079.6444    7828.0000     103.8029       0.0023       3.5437       2.6581       0.0884       5.9235       0.0282       0.0227       0.0072       0.0052       0.0000       0.0000       0.0000       0.0000       0.0001       0.0125       0.0001       0.0000       0.0633
 5079.4920    7756.0000      98.1188       0.0014       3.7306       2.6432       0.0879       5.9113       0.0327       0.0248       0.0021       0.0016       0.0001       0.0000       0.0000       0.0000       0.0002       0.0039       0.0001       0.0000       0.0614
 5079.3396    7627.0000     103.2154       0.0137       4.0983       2.6616       0.0897       5.9113       0.0274       0.0244       0.0019       0.0003       0.0000       0.0000       0.0000       0.0013       0.0014       0.0036       0.0001       0.0001       0.0554
 5079.1872    7656.0000     109.8159       0.0140       3.6221       2.6312       0.0920       5.9086       0.0217       0.0227       0.0046       0.0000       0.0000       0.0000       0.0000       0.0014       0.0015       0.0061       0.0001       0.0001       0.0505
 5079.0348    7527.0000     111.0284       0.0131       3.2185       2.6305       0.0873       5.8876       0.0196       0.0228       0.0079       0.0000       0.0000       0.0000       0.0000       0.0013       0.0013       0.0092       0.0001       0.0000       0.0517
 5078.8824    7474.0000     103.3444       0.0129       3.8977       2.6410       0.0737       5.8652       0.0218       0.0244       0.0099       0.0000       0.0000       0.0000       0.0000       0.0012       0.0013       0.0111       0.0001       0.0001       0.0574
