~VERSION INFORMATION
VERS.           2.0   :CWLS Log ASCII Standard - VERSION 2.0
WRAP.           NO    :One Line per depth step
PROD.  Schlumberger   :LAS Producer
PROG.  DLIS to ASCII 17C0-154                          :LAS Program name and version
CREA.        2010/05/08 22:27                          :LAS Creation date {YYYY/MM/DD hh:mm}
DLIS_CREA.  2010-May-08 20:41                          :DLIS Creation date and time {YYYY-MMM-DD hh:mm}
SOURCE.     ConocoPhillips Kronos-1 Run 1 CMR-LDS-CNT-GR Main Pass _268PUC.DLIS  :DLIS File Name
FILE-ID.     CMR_LDL_CNL_268PUP                        :File Identification Number
#--------------------------------------------------
~WELL INFORMATION
#MNEM.UNIT      DATA             DESCRIPTION
#---- ------ --------------   -----------------------------
STRT .M      5334.7620       :START DEPTH     
STOP .M      4697.2728       :STOP DEPTH     
STEP .M        -0.1524       :STEP     
NULL .          -999.25      :NULL VALUE
COMP .        ConocoPhillips Australia Pty Ltd         :COMPANY
WELL .        Kronos-1                                 :WELL
FLD  .        Browse Basin                             :FIELD
LOC  .        Permit: WA398-P                          :LOCATION
CNTY .        Transocean Legend                        :COUNTY
STAT .        Western Australia                        :STATE
CTRY .        Australia                                :COUNTRY
API  .                                                 :API NUMBER
UWI  .                                                 :UNIQUE WELL ID
DATE .        02-May-2010                              :LOG DATE {DD-MMM-YYYY}
SRVC .        Schlumberger                             :SERVICE COMPANY
LATI .DEG     13* 41' 53.9802"                         :LATITUDE
LONG .DEG     122* 11' 30.2352"                        :LONGITUDE
GDAT .                                                 :GeoDetic Datum
#-----------------------------------------------------------------------------
~PARAMETER INFORMATION
#MNEM.UNIT    VALUE                      DESCRIPTION
#---- -----   --------------------       ------------------------
RUN  .          1                        :RUN NUMBER
PDAT .        MSL                        :Permanent Datum
EPD  .                                   :Elevation of Permanent Datum above Mean Sea Level
LMF  .          RT                       :Logging Measured From (Name of Logging Elevation Reference)
APD  .                                   :Elevation of Depth Reference (LMF) above Permanent Datum
#-----------------------------------------------------------------------------
~CURVE INFORMATION
#MNEM.UNIT   API CODE                                  DESCRIPTION
#---- -----  --------                                  -----------------------
DEPT .M                                                :DEPTH (BOREHOLE) {F10.4}
TENS .LBF                                              :CABLE TENSION {F13.4}
GR_EDTC.GAPI                                           :EDTC Gamma Ray {F13.4}
HBDC .G/C3                                             :LDS High Resolution Bulk Density Correction {F13.4}
HLEF .                                                 :LDS High Resolution Log Spaced Photoelectric Effect {F13.4}
HROM .G/C3                                             :LDS High Resolution Corrected Bulk Density {F13.4}
HTNP .V/V                                              :HiRes Thermal Neutron Porosity {F13.4}
LCAL .IN                                               :LDS Caliper {F13.4}
CBP1 .V/V                                              :CMR Bin Porosity 1 {F13.4}
CBP2 .V/V                                              :CMR Bin Porosity 2 {F13.4}
CBP3 .V/V                                              :CMR Bin Porosity 3 {F13.4}
CBP4 .V/V                                              :CMR Bin Porosity 4 {F13.4}
CBP5 .V/V                                              :CMR Bin Porosity 5 {F13.4}
CBP6 .V/V                                              :CMR Bin Porosity 6 {F13.4}
CBP7 .V/V                                              :CMR Bin Porosity 7 {F13.4}
CBP8 .V/V                                              :CMR Bin Porosity 8 {F13.4}
CMFF .V/V                                              :CMR Free Fluid {F13.4}
CMRP_3MS.V/V                                           :CMR 3ms Porosity {F13.4}
KSDR .MD                                               :Permeability from CMR - SDR Model {F13.4}
KTIM .MD                                               :Permeability from CMR - Timur Model {F13.4}
TCMR .V/V                                              :Total CMR Porosity {F13.4}
#-----------------------------------------------------------------------------
# 
#     DEPT        TENS       GR_EDTC        HBDC         HLEF         HROM         HTNP         LCAL         CBP1         CBP2         CBP3         CBP4         CBP5         CBP6         CBP7         CBP8         CMFF       CMRP_3MS       KSDR         KTIM         TCMR
#
~A  
# ...
 4955.2860    7452.0000     121.1834      -0.0013       3.3152       2.6616       0.0933       5.9845       0.0100       0.0219       0.0173       0.0003       0.0004       0.0017       0.0000       0.0006       0.0027       0.0202       0.0002       0.0002       0.0522
 4955.1336    7505.0000     112.7822      -0.0012       2.8073       2.6379       0.0924       5.9754       0.0055       0.0214       0.0171       0.0002       0.0014       0.0003       0.0000       0.0006       0.0023       0.0196       0.0002       0.0001       0.0466
 4954.9812    7466.0000     104.2779      -0.0064       4.0791       2.6562       0.0901       5.9754       0.0026       0.0183       0.0169       0.0009       0.0006       0.0000       0.0000       0.0009       0.0016       0.0194       0.0001       0.0001       0.0403
 4954.8288    7576.0000     105.0518      -0.0065       4.4868       2.6885       0.0931       5.9832       0.0012       0.0156       0.0158       0.0021       0.0000       0.0000       0.0000       0.0008       0.0008       0.0187       0.0001       0.0000       0.0355
 4954.6764    7718.0000     113.9683      -0.0029       2.9465       2.6606       0.0964       5.9845       0.0008       0.0136       0.0144       0.0033       0.0000       0.0000       0.0000       0.0004       0.0004       0.0181       0.0001       0.0000       0.0326
 4954.5240    7578.0000     123.5481       0.0068       3.6636       2.6607       0.1001       5.9876       0.0007       0.0095       0.0144       0.0043       0.0000       0.0000       0.0000       0.0010       0.0010       0.0197       0.0001       0.0000       0.0299
 4954.3716    7572.0000     130.1861       0.0110       3.0341       2.6610       0.1023       5.9784       0.0004       0.0089       0.0168       0.0050       0.0000       0.0000       0.0000       0.0011       0.0012       0.0229       0.0001       0.0000       0.0322
 4954.2192    7603.0000     135.5571       0.0041       3.3513       2.6396       0.1058       5.9876       0.0012       0.0108       0.0161       0.0055       0.0000       0.0000       0.0000       0.0011       0.0011       0.0228       0.0002       0.0000       0.0348
 4954.0668    7623.0000     128.8340       0.0050       3.0299       2.6476       0.1028       5.9784       0.0025       0.0118       0.0133       0.0062       0.0003       0.0000       0.0000       0.0009       0.0013       0.0208       0.0001       0.0000       0.0351
 4953.9144    7505.0000     117.9115       0.0073       4.9788       2.6855       0.0907       5.9631       0.0031       0.0107       0.0099       0.0060       0.0010       0.0001       0.0003       0.0006       0.0020       0.0179       0.0001       0.0000       0.0317
 4953.7620    7421.0000     109.9633       0.0056       5.5001       2.6961       0.0831       5.9632       0.0010       0.0085       0.0077       0.0031       0.0017       0.0003       0.0015       0.0002       0.0037       0.0145       0.0001       0.0001       0.0239
 4953.6096    7421.0000     114.3115       0.0003       3.8221       2.6289       0.0896       5.9601       0.0002       0.0031       0.0069       0.0045       0.0004       0.0001       0.0013       0.0000       0.0018       0.0132       0.0000       0.0000       0.0165
 4953.4572    7491.0000     121.6430      -0.0016       3.8671       2.6313       0.1046       5.9662       0.0000       0.0028       0.0100       0.0021       0.0000       0.0000       0.0005       0.0005       0.0011       0.0132       0.0000       0.0000       0.0160
 4953.3048    7433.0000     129.8954       0.0000       3.0396       2.6250       0.1129       5.9784       0.0009       0.0066       0.0122       0.0002       0.0000       0.0000       0.0000       0.0006       0.0006       0.0130       0.0000       0.0000       0.0204
 4953.1524    7399.0000     129.7760       0.0008       3.6679       2.6103       0.1058       5.9804       0.0033       0.0116       0.0121       0.0001       0.0000       0.0000       0.0000       0.0002       0.0002       0.0124       0.0000       0.0000       0.0273
 4953.0000    7524.0000     125.8461      -0.0029       4.1249       2.6491       0.0904       5.9631       0.0081       0.0130       0.0113       0.0007       0.0000       0.0000       0.0000       0.0004       0.0004       0.0124       0.0000       0.0000       0.0335
 4952.8476    7540.0000     116.0328       0.0004       4.2435       2.6629       0.0818       5.9601       0.0081       0.0112       0.0096       0.0022       0.0000       0.0000       0.0000       0.0001       0.0001       0.0120       0.0000       0.0000       0.0312
 4952.6952    7623.0000     107.3098       0.0001       3.5132       2.6630       0.0821       5.9540       0.0107       0.0126       0.0143       0.0033       0.0000       0.0000       0.0004       0.0000       0.0004       0.0179       0.0001       0.0000       0.0413
 4952.5428    7644.0000     109.0626      -0.0071       4.0436       2.6333       0.0872       5.9601       0.0122       0.0143       0.0174       0.0038       0.0000       0.0000       0.0008       0.0001       0.0010       0.0221       0.0002       0.0000       0.0487
 4952.3904    7642.0000     107.9530      -0.0087       4.7300       2.6657       0.0891       5.9631       0.0111       0.0145       0.0154       0.0037       0.0000       0.0000       0.0009       0.0004       0.0014       0.0205       0.0002       0.0000       0.0462
 4952.2380    7622.0000     113.8875       0.0058       3.8966       2.7084       0.0891       5.9693       0.0083       0.0126       0.0094       0.0026       0.0000       0.0000       0.0001       0.0009       0.0010       0.0130       0.0000       0.0000       0.0340
 4952.0856    7472.0000     112.8989       0.0099       2.8831       2.6772       0.0928       5.9509       0.0047       0.0077       0.0085       0.0023       0.0000       0.0000       0.0000       0.0006       0.0006       0.0114       0.0000       0.0000       0.0238
 4951.9332    7487.0000     107.5676       0.0007       3.1822       2.6252       0.0937       5.9509       0.0034       0.0057       0.0087       0.0020       0.0000       0.0000       0.0000       0.0006       0.0006       0.0113       0.0000       0.0000       0.0204
 4951.7808    7496.0000     107.7656      -0.0006       4.9392       2.7154       0.0905       5.9326       0.0038       0.0048       0.0084       0.0023       0.0000       0.0000       0.0000       0.0004       0.0004       0.0111       0.0000       0.0000       0.0197
 4951.6284    7393.0000     116.7053      -0.0032       5.2576       2.6889       0.0937       5.9326       0.0052       0.0052       0.0076       0.0023       0.0000       0.0000       0.0000       0.0013       0.0013       0.0112       0.0001       0.0001       0.0217
 4951.4760    7437.0000     135.0451       0.0049       3.3073       2.6308       0.1191       5.9289       0.0068       0.0096       0.0076       0.0001       0.0000       0.0000       0.0000       0.0061       0.0062       0.0139       0.0003       0.0005       0.0303
 4951.3236    7394.0000     146.1523      -0.0032       3.5161       2.5992       0.1431       5.9418       0.0106       0.0139       0.0077       0.0001       0.0000       0.0000       0.0000       0.0068       0.0068       0.0146       0.0004       0.0011       0.0392
 4951.1712    7406.0000     149.8759       0.0000       3.4776       2.7180       0.1529       5.9540       0.0174       0.0211       0.0101       0.0000       0.0000       0.0000       0.0000       0.0028       0.0028       0.0129       0.0002       0.0005       0.0514
 4951.0188    7500.0000     145.0424      -0.0053       3.2483       2.6734       0.1401       5.9570       0.0211       0.0264       0.0165       0.0013       0.0003       0.0011       0.0000       0.0000       0.0014       0.0192       0.0004       0.0003       0.0666
 4950.8664    7517.0000     131.6145      -0.0017       3.0921       2.6413       0.1246       5.9693       0.0216       0.0288       0.0221       0.0025       0.0006       0.0021       0.0000       0.0000       0.0028       0.0274       0.0008       0.0007       0.0778
