~VERSION INFORMATION
VERS.           2.0   :CWLS Log ASCII Standard - VERSION 2.0
WRAP.           NO    :One Line per depth step
PROD.  Schlumberger   :LAS Producer
PROG.  DLIS to ASCII 17C0-154                          :LAS Program name and version
CREA.        2010/05/08 22:27                          :LAS Creation date {YYYY/MM/DD hh:mm}
DLIS_CREA.  2010-May-08 20:41                          :DLIS Creation date and time {YYYY-MMM-DD hh:mm}
SOURCE.     ConocoPhillips Kronos-1 Run 1 CMR-LDS-CNT-GR Main Pass _268PUC.DLIS  :DLIS File Name
FILE-ID.     CMR_LDL_CNL_268PUP                        :File Identification Number
#--------------------------------------------------
~WELL INFORMATION
#MNEM.UNIT      DATA             DESCRIPTION
#---- ------ --------------   -----------------------------
STRT .M      5334.7620       :START DEPTH     
STOP .M      4697.2728       :STOP DEPTH     
STEP .M        -0.1524       :STEP     
NULL .          -999.25      :NULL VALUE
COMP .        ConocoPhillips Australia Pty Ltd         :COMPANY
WELL .        Kronos-1                                 :WELL
FLD  .        Browse Basin                             :FIELD
LOC  .        Permit: WA398-P                          :LOCATION
CNTY .        Transocean Legend                        :COUNTY
STAT .        Western Australia                        :STATE
CTRY .        Australia                                :COUNTRY
API  .                                                 :API NUMBER
UWI  .                                                 :UNIQUE WELL ID
DATE .        02-May-2010                              :LOG DATE {DD-MMM-YYYY}
SRVC .        Schlumberger                             :SERVICE COMPANY
LATI .DEG     13* 41' 53.9802"                         :LATITUDE
LONG .DEG     122* 11' 30.2352"                        :LONGITUDE
GDAT .                                                 :GeoDetic Datum
#-----------------------------------------------------------------------------
~PARAMETER INFORMATION
#MNEM.UNIT    VALUE                      DESCRIPTION
#---- -----   --------------------       ------------------------
RUN  .          1                        :RUN NUMBER
PDAT .        MSL                        :Permanent Datum
EPD  .                                   :Elevation of Permanent Datum above Mean Sea Level
LMF  .          RT                       :Logging Measured From (Name of Logging Elevation Reference)
APD  .                                   :Elevation of Depth Reference (LMF) above Permanent Datum
#-----------------------------------------------------------------------------
~CURVE INFORMATION
#MNEM.UNIT   API CODE                                  DESCRIPTION
#---- -----  --------                                  -----------------------
DEPT .M                                                :DEPTH (BOREHOLE) {F10.4}
TENS .LBF                                              :CABLE TENSION {F13.4}
GR_EDTC.GAPI                                           :EDTC Gamma Ray {F13.4}
HBDC .G/C3                                             :LDS High Resolution Bulk Density Correction {F13.4}
HLEF .                                                 :LDS High Resolution Log Spaced Photoelectric Effect {F13.4}
HROM .G/C3                                             :LDS High Resolution Corrected Bulk Density {F13.4}
HTNP .V/V                                              :HiRes Thermal Neutron Porosity {F13.4}
LCAL .IN                                               :LDS Caliper {F13.4}
CBP1 .V/V                                              :CMR Bin Porosity 1 {F13.4}
CBP2 .V/V                                              :CMR Bin Porosity 2 {F13.4}
CBP3 .V/V                                              :CMR Bin Porosity 3 {F13.4}
CBP4 .V/V                                              :CMR Bin Porosity 4 {F13.4}
CBP5 .V/V                                              :CMR Bin Porosity 5 {F13.4}
CBP6 .V/V                                              :CMR Bin Porosity 6 {F13.4}
CBP7 .V/V                                              :CMR Bin Porosity 7 {F13.4}
CBP8 .V/V                                              :CMR Bin Porosity 8 {F13.4}
CMFF .V/V                                              :CMR Free Fluid {F13.4}
CMRP_3MS.V/V                                           :CMR 3ms Porosity {F13.4}
KSDR .MD                                               :Permeability from CMR - SDR Model {F13.4}
KTIM .MD                                               :Permeability from CMR - Timur Model {F13.4}
TCMR .V/V                                              :Total CMR Porosity {F13.4}
#-----------------------------------------------------------------------------
# 
#     DEPT        TENS       GR_EDTC        HBDC         HLEF         HROM         HTNP         LCAL         CBP1         CBP2         CBP3         CBP4         CBP5         CBP6         CBP7         CBP8         CMFF       CMRP_3MS       KSDR         KTIM         TCMR
#
~A  
# ...
 4831.8420    7237.0000     148.4012       0.0014       3.1597       2.6535       0.1621       5.9810       0.0208       0.0185       0.0036       0.0000       0.0000       0.0000       0.0000       0.0009       0.0009       0.0045       0.0000       0.0000       0.0437
 4831.6896    7323.0000     155.8927      -0.0032       2.8551       2.6639       0.1828       5.9775       0.0179       0.0133       0.0025       0.0011       0.0000       0.0000       0.0000       0.0048       0.0048       0.0084       0.0001       0.0005       0.0397
 4831.5372    7373.0000     161.5179       0.0018       3.3682       2.6836       0.1825       5.9775       0.0165       0.0136       0.0009       0.0006       0.0000       0.0000       0.0000       0.0110       0.0110       0.0124       0.0023       0.0058       0.0425
 4831.3848    7494.0000     156.7852       0.0145       3.5918       2.7196       0.1835       5.9810       0.0135       0.0147       0.0000       0.0000       0.0000       0.0000       0.0000       0.0139       0.0139       0.0139       0.0036       0.0078       0.0421
 4831.2324    7467.0000     154.5777       0.0192       3.4776       2.7187       0.1740       5.9810       0.0084       0.0146       0.0003       0.0000       0.0008       0.0000       0.0000       0.0104       0.0112       0.0115       0.0026       0.0045       0.0346
 4831.0800    7459.0000     147.5508       0.0095       3.2723       2.6883       0.1501       5.9653       0.0029       0.0134       0.0017       0.0000       0.0039       0.0000       0.0000       0.0000       0.0040       0.0057       0.0000       0.0001       0.0219
 4830.9276    7434.0000     135.3610       0.0056       3.2381       2.6833       0.1137       5.9514       0.0024       0.0110       0.0028       0.0000       0.0027       0.0000       0.0000       0.0000       0.0027       0.0056       0.0000       0.0000       0.0190
 4830.7752    7305.0000     118.0200       0.0002       3.5183       2.6695       0.0904       5.9636       0.0013       0.0082       0.0052       0.0001       0.0009       0.0000       0.0000       0.0000       0.0010       0.0062       0.0000       0.0000       0.0157
 4830.6228    7353.0000     104.0352      -0.0050       4.3433       2.6583       0.0867       5.9549       0.0007       0.0066       0.0080       0.0006       0.0000       0.0000       0.0000       0.0000       0.0000       0.0086       0.0000       0.0000       0.0159
 4830.4704    7242.0000     105.6240      -0.0042       3.2483       2.6528       0.1018       5.9671       0.0009       0.0063       0.0103       0.0020       0.0000       0.0000       0.0000       0.0002       0.0002       0.0125       0.0000       0.0000       0.0197
 4830.3180    7257.0000     121.4980      -0.0090       3.6138       2.6259       0.1318       6.0037       0.0008       0.0061       0.0111       0.0045       0.0000       0.0000       0.0000       0.0010       0.0010       0.0166       0.0000       0.0000       0.0235
 4830.1656    7209.0000     141.4636      -0.0117       3.3851       2.6160       0.1526       6.0141       0.0002       0.0061       0.0109       0.0040       0.0000       0.0000       0.0001       0.0014       0.0015       0.0164       0.0001       0.0000       0.0228
 4830.0132    7197.0000     153.9114      -0.0083       3.0689       2.6512       0.1605       6.0107       0.0001       0.0067       0.0091       0.0016       0.0022       0.0000       0.0000       0.0008       0.0030       0.0138       0.0000       0.0000       0.0206
 4829.8608    7317.0000     152.6482      -0.0069       3.4626       2.6677       0.1670       6.0124       0.0029       0.0081       0.0067       0.0012       0.0027       0.0000       0.0000       0.0003       0.0030       0.0110       0.0000       0.0000       0.0219
 4829.7084    7400.0000     144.4162      -0.0060       3.9617       2.6899       0.1665       6.0089       0.0080       0.0104       0.0047       0.0023       0.0012       0.0000       0.0000       0.0003       0.0014       0.0084       0.0000       0.0000       0.0268
 4829.5560    7325.0000     142.2535      -0.0025       4.0108       2.7181       0.1655       6.0333       0.0122       0.0138       0.0043       0.0000       0.0000       0.0000       0.0000       0.0005       0.0006       0.0049       0.0000       0.0000       0.0308
 4829.4036    7417.0000     144.4575      -0.0096       2.7216       2.6588       0.1722       6.0647       0.0126       0.0171       0.0035       0.0000       0.0000       0.0000       0.0000       0.0012       0.0012       0.0047       0.0000       0.0000       0.0345
 4829.2512    7403.0000     149.4761      -0.0084       3.3239       2.6710       0.1733       6.0874       0.0096       0.0156       0.0037       0.0000       0.0000       0.0000       0.0000       0.0013       0.0013       0.0051       0.0000       0.0000       0.0303
 4829.0988    7370.0000     150.9661      -0.0053       2.6328       2.6531       0.1706       6.0699       0.0077       0.0139       0.0027       0.0000       0.0000       0.0000       0.0000       0.0014       0.0014       0.0041       0.0000       0.0000       0.0256
 4828.9464    7375.0000     147.3823      -0.0009       2.8943       2.6730       0.1597       6.0682       0.0068       0.0127       0.0007       0.0000       0.0000       0.0000       0.0000       0.0015       0.0015       0.0022       0.0000       0.0000       0.0217
 4828.7940    7349.0000     132.5456      -0.0034       2.9178       2.6895       0.1432       6.0699       0.0019       0.0093       0.0014       0.0000       0.0000       0.0000       0.0000       0.0004       0.0005       0.0019       0.0000       0.0000       0.0131
 4828.6416    7183.0000     115.7365      -0.0100       3.1975       2.6549       0.1196       6.0341       0.0013       0.0062       0.0040       0.0003       0.0000       0.0000       0.0000       0.0010       0.0010       0.0053       0.0000       0.0000       0.0128
 4828.4892    7246.0000     101.4702       0.0010       3.4656       2.6877       0.1113       6.0351       0.0009       0.0051       0.0046       0.0004       0.0000       0.0000       0.0000       0.0011       0.0011       0.0061       0.0000       0.0000       0.0121
 4828.3368    7146.0000     107.2667      -0.0013       3.0170       2.6556       0.1151       6.0439       0.0004       0.0058       0.0054       0.0002       0.0000       0.0000       0.0000       0.0006       0.0007       0.0063       0.0000       0.0000       0.0125
 4828.1844    7079.0000     124.9080      -0.0075       3.1814       2.6571       0.1286       6.0490       0.0003       0.0075       0.0065       0.0000       0.0000       0.0000       0.0000       0.0000       0.0000       0.0065       0.0000       0.0000       0.0144
 4828.0320    7166.0000     140.1078      -0.0055       3.1829       2.6971       0.1543       6.0472       0.0012       0.0089       0.0065       0.0001       0.0000       0.0000       0.0000       0.0000       0.0000       0.0065       0.0000       0.0000       0.0167
 4827.8796    7154.0000     148.2758      -0.0058       3.0309       2.6892       0.1724       6.0595       0.0031       0.0098       0.0047       0.0035       0.0022       0.0000       0.0000       0.0003       0.0024       0.0106       0.0000       0.0001       0.0236
 4827.7272    7186.0000     146.9563       0.0018       2.6408       2.6807       0.1844       6.0667       0.0029       0.0075       0.0043       0.0059       0.0017       0.0000       0.0000       0.0006       0.0023       0.0124       0.0000       0.0000       0.0228
 4827.5748    7259.0000     147.2585      -0.0028       3.0569       2.6727       0.1831       6.0651       0.0021       0.0052       0.0042       0.0073       0.0006       0.0000       0.0000       0.0004       0.0010       0.0126       0.0000       0.0000       0.0199
 4827.4224    7331.0000     144.4162      -0.0079       3.4743       2.6694       0.1730       6.0577       0.0015       0.0042       0.0041       0.0077       0.0000       0.0000       0.0000       0.0000       0.0000       0.0118       0.0000       0.0000       0.0175
