~VERSION INFORMATION
VERS.           2.0   :CWLS Log ASCII Standard - VERSION 2.0
WRAP.           NO    :One Line per depth step
PROD.  Schlumberger   :LAS Producer
PROG.  DLIS to ASCII 17C0-154                          :LAS Program name and version
CREA.        2010/05/08 22:27                          :LAS Creation date {YYYY/MM/DD hh:mm}
DLIS_CREA.  2010-May-08 20:41                          :DLIS Creation date and time {YYYY-MMM-DD hh:mm}
SOURCE.     ConocoPhillips Kronos-1 Run 1 CMR-LDS-CNT-GR Main Pass _268PUC.DLIS  :DLIS File Name
FILE-ID.     CMR_LDL_CNL_268PUP                        :File Identification Number
#--------------------------------------------------
~WELL INFORMATION
#MNEM.UNIT      DATA             DESCRIPTION
#---- ------ --------------   -----------------------------
STRT .M      5334.7620       :START DEPTH     
STOP .M      4697.2728       :STOP DEPTH     
STEP .M        -0.1524       :STEP     
NULL .          -999.25      :NULL VALUE
COMP .        ConocoPhillips Australia Pty Ltd         :COMPANY
WELL .        Kronos-1                                 :WELL
FLD  .        Browse Basin                             :FIELD
LOC  .        Permit: WA398-P                          :LOCATION
CNTY .        Transocean Legend                        :COUNTY
STAT .        Western Australia                        :STATE
CTRY .        Australia                                :COUNTRY
API  .                                                 :API NUMBER
UWI  .                                                 :UNIQUE WELL ID
DATE .        02-May-2010                              :LOG DATE {DD-MMM-YYYY}
SRVC .        Schlumberger                             :SERVICE COMPANY
LATI .DEG     13* 41' 53.9802"                         :LATITUDE
LONG .DEG     122* 11' 30.2352"                        :LONGITUDE
GDAT .                                                 :GeoDetic Datum
#-----------------------------------------------------------------------------
~PARAMETER INFORMATION
#MNEM.UNIT    VALUE                      DESCRIPTION
#---- -----   --------------------       ------------------------
RUN  .          1                        :RUN NUMBER
PDAT .        MSL                        :Permanent Datum
EPD  .                                   :Elevation of Permanent Datum above Mean Sea Level
LMF  .          RT                       :Logging Measured From (Name of Logging Elevation Reference)
APD  .                                   :Elevation of Depth Reference (LMF) above Permanent Datum
#-----------------------------------------------------------------------------
~CURVE INFORMATION
#MNEM.UNIT   API CODE                                  DESCRIPTION
#---- -----  --------                                  -----------------------
DEPT .M                                                :DEPTH (BOREHOLE) {F10.4}
TENS .LBF                                              :CABLE TENSION {F13.4}
GR_EDTC.GAPI                                           :EDTC Gamma Ray {F13.4}
HBDC .G/C3                                             :LDS High Resolution Bulk Density Correction {F13.4}
HLEF .                                                 :LDS High Resolution Log Spaced Photoelectric Effect {F13.4}
HROM .G/C3                                             :LDS High Resolution Corrected Bulk Density {F13.4}
HTNP .V/V                                              :HiRes Thermal Neutron Porosity {F13.4}
LCAL .IN                                               :LDS Caliper {F13.4}
CBP1 .V/V                                              :CMR Bin Porosity 1 {F13.4}
CBP2 .V/V                                              :CMR Bin Porosity 2 {F13.4}
CBP3 .V/V                                              :CMR Bin Porosity 3 {F13.4}
CBP4 .V/V                                              :CMR Bin Porosity 4 {F13.4}
CBP5 .V/V                                              :CMR Bin Porosity 5 {F13.4}
CBP6 .V/V                                              :CMR Bin Porosity 6 {F13.4}
CBP7 .V/V                                              :CMR Bin Porosity 7 {F13.4}
CBP8 .V/V                                              :CMR Bin Porosity 8 {F13.4}
CMFF .V/V                                              :CMR Free Fluid {F13.4}
CMRP_3MS.V/V                                           :CMR 3ms Porosity {F13.4}
KSDR .MD                                               :Permeability from CMR - SDR Model {F13.4}
KTIM .MD                                               :Permeability from CMR - Timur Model {F13.4}
TCMR .V/V                                              :Total CMR Porosity {F13.4}
#-----------------------------------------------------------------------------
# 
#     DEPT        TENS       GR_EDTC        HBDC         HLEF         HROM         HTNP         LCAL         CBP1         CBP2         CBP3         CBP4         CBP5         CBP6         CBP7         CBP8         CMFF       CMRP_3MS       KSDR         KTIM         TCMR
#
~A  
# ...
 4872.9900    7308.0000     133.1821       0.0098       3.6916       2.6529       0.1999       5.9723       0.0200       0.0294       0.0063       0.0000       0.0000       0.0000       0.0000       0.0008       0.0008       0.0071       0.0001       0.0000       0.0566
 4872.8376    7293.0000     129.4670       0.0059       2.8415       2.6368       0.1849       5.9509       0.0144       0.0220       0.0058       0.0000       0.0000       0.0000       0.0000       0.0012       0.0012       0.0071       0.0000       0.0000       0.0435
 4872.6852    7240.0000     136.6590       0.0073       3.2327       2.6305       0.2142       5.9326       0.0177       0.0189       0.0027       0.0000       0.0000       0.0000       0.0000       0.0028       0.0028       0.0055       0.0001       0.0002       0.0421
 4872.5328    7305.0000     147.0297       0.0091       3.7658       2.6252       0.2122       5.9509       0.0213       0.0175       0.0005       0.0000       0.0000       0.0000       0.0000       0.0042       0.0042       0.0048       0.0001       0.0004       0.0436
 4872.3804    7364.0000     135.4617       0.0085       2.7270       2.6344       0.1841       5.9540       0.0230       0.0175       0.0005       0.0000       0.0000       0.0000       0.0000       0.0049       0.0050       0.0055       0.0001       0.0007       0.0460
 4872.2280    7385.0000     128.0035       0.0019       3.0760       2.6266       0.1798       5.9289       0.0272       0.0208       0.0010       0.0000       0.0000       0.0000       0.0000       0.0053       0.0053       0.0063       0.0002       0.0010       0.0542
 4872.0756    7486.0000     130.9631      -0.0020       3.6535       2.6218       0.2044       5.9296       0.0210       0.0227       0.0051       0.0000       0.0000       0.0000       0.0000       0.0017       0.0017       0.0068       0.0001       0.0002       0.0504
 4871.9232    7537.0000     145.0455       0.0028       3.2994       2.6281       0.2539       5.9357       0.0196       0.0248       0.0074       0.0000       0.0000       0.0000       0.0000       0.0010       0.0010       0.0084       0.0001       0.0000       0.0529
 4871.7708    7545.0000     152.8441       0.0012       3.2097       2.6388       0.2718       5.9296       0.0194       0.0260       0.0082       0.0000       0.0000       0.0000       0.0000       0.0014       0.0014       0.0097       0.0001       0.0001       0.0550
 4871.6184    7480.0000     152.4208      -0.0013       5.0918       2.6793       0.2898       5.9357       0.0186       0.0257       0.0070       0.0000       0.0000       0.0000       0.0000       0.0014       0.0015       0.0085       0.0001       0.0001       0.0527
 4871.4660    7483.0000     153.6216       0.0075       8.9838       2.8132       0.2927       5.9174       0.0183       0.0238       0.0020       0.0000       0.0000       0.0000       0.0000       0.0000       0.0000       0.0021       0.0000       0.0000       0.0442
 4871.3136    7408.0000     158.1256       0.0070       2.9986       2.7650       0.3025       5.9235       0.0139       0.0196       0.0011       0.0000       0.0000       0.0000       0.0000       0.0000       0.0000       0.0011       0.0000       0.0000       0.0345
 4871.1612    7472.0000     156.2327      -0.0013       3.0107       2.5967       0.2974       5.9265       0.0207       0.0245       0.0010       0.0000       0.0025       0.0000       0.0000       0.0001       0.0026       0.0036       0.0001       0.0005       0.0488
 4871.0088    7327.0000     141.7137       0.0030       4.0948       2.6629       0.2701       5.9265       0.0263       0.0294       0.0032       0.0000       0.0036       0.0000       0.0000       0.0003       0.0039       0.0072       0.0001       0.0007       0.0629
 4870.8564    7387.0000     134.1538       0.0046       4.2014       2.7768       0.2551       5.9174       0.0266       0.0301       0.0070       0.0001       0.0024       0.0000       0.0000       0.0008       0.0032       0.0103       0.0002       0.0005       0.0670
 4870.7040    7242.0000     142.7894       0.0045       9.0647       2.7478       0.2599       5.9204       0.0259       0.0270       0.0099       0.0004       0.0013       0.0000       0.0000       0.0010       0.0024       0.0127       0.0002       0.0003       0.0656
 4870.5516    7425.0000     160.9252       0.0078       3.6830       2.6222       0.2751       5.9296       0.0352       0.0246       0.0080       0.0002       0.0003       0.0000       0.0000       0.0082       0.0085       0.0166       0.0013       0.0066       0.0765
 4870.3992    7293.0000     169.2210      -0.0031       3.1159       2.6117       0.2756       5.9265       0.0322       0.0213       0.0066       0.0001       0.0000       0.0000       0.0000       0.0094       0.0095       0.0162       0.0011       0.0060       0.0697
 4870.2468    7527.0000     162.1729      -0.0038       3.1862       2.6267       0.2750       5.9235       0.0274       0.0197       0.0064       0.0001       0.0000       0.0000       0.0000       0.0074       0.0074       0.0139       0.0006       0.0031       0.0610
 4870.0944    7315.0000     152.6612      -0.0026       2.9259       2.6923       0.2623       5.9204       0.0248       0.0210       0.0072       0.0000       0.0000       0.0000       0.0000       0.0040       0.0040       0.0112       0.0002       0.0008       0.0570
 4869.9420    7515.0000     147.5305      -0.0019       3.9331       2.6962       0.2466       5.9642       0.0219       0.0247       0.0075       0.0000       0.0000       0.0000       0.0000       0.0000       0.0000       0.0075       0.0001       0.0000       0.0541
 4869.7896    7569.0000     150.3338       0.0022       3.7332       2.6339       0.2442       5.9601       0.0221       0.0255       0.0055       0.0000       0.0000       0.0000       0.0000       0.0000       0.0000       0.0056       0.0000       0.0000       0.0532
 4869.6372    7740.0000     157.9616      -0.0002       3.3536       2.6117       0.2650       5.9754       0.0173       0.0229       0.0061       0.0000       0.0000       0.0000       0.0011       0.0001       0.0012       0.0074       0.0001       0.0001       0.0476
 4869.4848    7620.0000     157.8524      -0.0014       3.4190       2.6309       0.2716       5.9967       0.0168       0.0230       0.0061       0.0000       0.0000       0.0000       0.0022       0.0001       0.0024       0.0085       0.0001       0.0002       0.0483
 4869.3324    7496.0000     160.2263      -0.0114       3.7336       2.6359       0.2684       6.0120       0.0223       0.0264       0.0048       0.0000       0.0000       0.0000       0.0027       0.0000       0.0027       0.0075       0.0001       0.0003       0.0563
 4869.1800    7376.0000     158.1659      -0.0134       3.1192       2.6440       0.2739       6.0425       0.0279       0.0284       0.0045       0.0000       0.0000       0.0000       0.0016       0.0000       0.0017       0.0061       0.0001       0.0001       0.0625
 4869.0276    7348.0000     151.6273      -0.0073       2.8466       2.6444       0.2827       6.0303       0.0228       0.0287       0.0064       0.0000       0.0000       0.0000       0.0013       0.0005       0.0018       0.0082       0.0001       0.0001       0.0597
 4868.8752    7264.0000     143.7712      -0.0056       2.7573       2.6812       0.2604       6.0272       0.0239       0.0327       0.0071       0.0000       0.0000       0.0000       0.0005       0.0002       0.0008       0.0078       0.0001       0.0000       0.0644
 4868.7228    7302.0000     136.2510      -0.0006       8.4017       2.7119       0.2372       6.0211       0.0257       0.0361       0.0092       0.0008       0.0001       0.0000       0.0000       0.0000       0.0001       0.0101       0.0002       0.0000       0.0720
 4868.5704    7356.0000     138.2046      -0.0124       3.3058       2.5986       0.2149       6.0364       0.0265       0.0369       0.0118       0.0027       0.0001       0.0000       0.0000       0.0000       0.0001       0.0146       0.0003       0.0000       0.0780
